{"type": "FeatureCollection", "features": [{"geometry": {"type": "Point", "coordinates": [75.4516454, 27.2520587]}, "type": "Feature", "properties": {"state": "Rajasthan", "code": "BDHL", "name": "Badhal", "zone": "NWR", "address": "Kishangarh Renwal, Rajasthan"}}, {"geometry": null, "type": "Feature", "properties": {"state": null, "code": "XX-BECE", "name": "XX-BECE", "zone": null, "address": null}}, {"geometry": null, "type": "Feature", "properties": {"state": null, "code": "XX-BSPY", "name": "XX-BSPY", "zone": null, "address": null}}, {"geometry": null, "type": "Feature", "properties": {"state": null, "code": "YY-BPLC", "name": "YY-BPLC", "zone": null, "address": null}}, {"geometry": {"type": "Point", "coordinates": [79.519746, 28.913427000000002]}, "type": "Feature", "properties": {"state": "Uttar Pradesh", "code": "KHH", "name": "KICHHA", "zone": "NER", "address": "Kichha, Uttar Pradesh"}}, {"geometry": {"type": "Point", "coordinates": [74.43499088287354, 29.55519806064484]}, "type": "Feature", "properties": {"state": "Rajasthan", "code": "SRKN", "name": "Sherekan", "zone": "NWR", "address": "MDR 89, Rajasthan"}}, {"geometry": {"type": "Point", "coordinates": [74.75103096105158, 29.238227312503696]}, "type": "Feature", "properties": {"state": "Rajasthan", "code": "BKKA", "name": "Bhukarka", "zone": "NWR", "address": "Bhukarka, Rajasthan"}}, {"geometry": {"type": "Point", "coordinates": [74.77362781763077, 29.192562738768984]}, "type": "Feature", "properties": {"state": "Rajasthan", "code": "NHR", "name": "Nohar", "zone": "NWR", "address": "State Highway 36, Rajasthan"}}, {"geometry": {"type": "Point", "coordinates": [80.231363, 12.975217]}, "type": "Feature", "properties": {"state": "Tamil Nadu", "code": "PRGD", "name": "Perungudi", "zone": "SR", "address": "Chennai, Tamil Nadu"}}, {"geometry": {"type": "Point", "coordinates": [74.7179570607841, 29.345637263205944]}, "type": "Feature", "properties": {"state": "Haryana", "code": "KNNA", "name": "Khinaniyan", "zone": "NWR", "address": "State Highway 23, Haryana"}}, {"geometry": {"type": "Point", "coordinates": [78.216684, 21.838466]}, "type": "Feature", "properties": {"state": null, "code": "JKR", "name": "JAULKHERA", "zone": null, "address": null}}, {"geometry": {"type": "Point", "coordinates": [78.03136099999999, 21.909813]}, "type": "Feature", "properties": {"state": null, "code": "BYS", "name": "BARSALI", "zone": null, "address": null}}, {"geometry": {"type": "Point", "coordinates": [78.936311, 23.838185999999997]}, "type": "Feature", "properties": {"state": null, "code": "GW", "name": "GIRWAR", "zone": null, "address": null}}, {"geometry": {"type": "Point", "coordinates": [79.019912, 23.871771000000003]}, "type": "Feature", "properties": {"state": null, "code": "DGD", "name": "DANGIDHAR", "zone": null, "address": null}}, {"geometry": {"type": "Point", "coordinates": [75.10354600000001, 23.770740999999997]}, "type": "Feature", "properties": {"state": "Madhya Pradesh", "code": "DOD", "name": "DHODHAR", "zone": "WR", "address": "Dhodar, Madhya Pradesh"}}, {"geometry": {"type": "Point", "coordinates": [79.074633, 23.895862]}, "type": "Feature", "properties": {"state": null, "code": "GAJ", "name": "GANESHGANJ", "zone": null, "address": null}}, {"geometry": {"type": "Point", "coordinates": [88.415324, 22.168635]}, "type": "Feature", "properties": {"state": "West Bengal", "code": "JNM", "name": "Jayanagar Majilpur Halt", "zone": "ER", "address": "Jaynagar, West Bengal"}}, {"geometry": {"type": "Point", "coordinates": [74.71699100000001, 26.294459999999997]}, "type": "Feature", "properties": {"state": "Rajasthan", "code": "NSD", "name": "NASIRABAD", "zone": "NWR", "address": "Nasirabad, Rajasthan"}}, {"geometry": {"type": "Point", "coordinates": [79.192899, 23.905726]}, "type": "Feature", "properties": {"state": null, "code": "PHA", "name": "PATHARIA", "zone": null, "address": null}}, {"geometry": {"type": "Point", "coordinates": [78.103238, 18.679164999999998]}, "type": "Feature", "properties": {"state": "Andhra Pradesh", "code": "NZB", "name": "NIZAMABAD", "zone": "SCR", "address": "Nizamabad, Andhra Pradesh"}}, {"geometry": {"type": "Point", "coordinates": [86.01054599999999, 25.387446999999998]}, "type": "Feature", "properties": {"state": null, "code": "RJO", "name": "RAJENDRA PUL", "zone": null, "address": null}}, {"geometry": {"type": "Point", "coordinates": [79.478668, 11.009165]}, "type": "Feature", "properties": {"state": "Tamil Nadu", "code": "ADT", "name": "ADUTURAI", "zone": "SR", "address": "Aduthurai, Tamil Nadu"}}, {"geometry": {"type": "Point", "coordinates": [79.388644, 10.952962]}, "type": "Feature", "properties": {"state": "Tamil Nadu", "code": "KMU", "name": "KUMBAKONAM", "zone": "SR", "address": "Kumbakonam, Tamil Nadu"}}, {"geometry": {"type": "Point", "coordinates": [78.45351, 9.681538999999999]}, "type": "Feature", "properties": {"state": "Tamil Nadu", "code": "MNM", "name": "MANAMADURAI JN", "zone": "SR", "address": "Sivaganga, Tamil Nadu"}}, {"geometry": {"type": "Point", "coordinates": [83.381499, 26.759311]}, "type": "Feature", "properties": {"state": null, "code": "GKP", "name": "GORAKHPUR JN", "zone": null, "address": null}}, {"geometry": null, "type": "Feature", "properties": {"state": null, "code": "BJUP", "name": "BJUP", "zone": null, "address": null}}, {"geometry": {"type": "Point", "coordinates": [73.16928300000001, 22.184274000000002]}, "type": "Feature", "properties": {"state": null, "code": "VRM", "name": "VARNAMA", "zone": null, "address": null}}, {"geometry": {"type": "Point", "coordinates": [83.416821, 26.750649]}, "type": "Feature", "properties": {"state": null, "code": "GKC", "name": "GORAKHPUR CANT", "zone": null, "address": null}}, {"geometry": {"type": "Point", "coordinates": [73.156746, 22.149889]}, "type": "Feature", "properties": {"state": null, "code": "ITA", "name": "ITOLA", "zone": null, "address": null}}, {"geometry": null, "type": "Feature", "properties": {"state": null, "code": "CIKA", "name": "CIKA", "zone": null, "address": null}}, {"geometry": null, "type": "Feature", "properties": {"state": null, "code": "XX-CPHO", "name": "XX-CPHO", "zone": null, "address": null}}, {"geometry": {"type": "Point", "coordinates": [77.273006, 29.09692]}, "type": "Feature", "properties": {"state": "Uttar Pradesh", "code": "BTU", "name": "BARAUT", "zone": "NR", "address": "Baraut, Uttar Pradesh"}}, {"geometry": {"type": "Point", "coordinates": [75.16846699999999, 30.817296]}, "type": "Feature", "properties": {"state": "Punjab", "code": "MOGA", "name": "Moga", "zone": "NR", "address": "Moga, Punjab"}}, {"geometry": {"type": "Point", "coordinates": [70.503394, 23.309819]}, "type": "Feature", "properties": {"state": null, "code": "SIOB", "name": "SAMAKHIALI JN", "zone": null, "address": null}}, {"geometry": null, "type": "Feature", "properties": {"state": null, "code": "LLHW", "name": "LLHW", "zone": null, "address": null}}, {"geometry": {"type": "Point", "coordinates": [75.087121, 27.713786000000002]}, "type": "Feature", "properties": {"state": "Rajasthan", "code": "RDK", "name": "Rasheedpura Khori", "zone": "NWR", "address": "MDR 87, Rajasthan"}}, {"geometry": {"type": "Point", "coordinates": [80.612645, 16.414205000000003]}, "type": "Feature", "properties": {"state": null, "code": "PVD", "name": "PEDDAVADIAPUDI", "zone": null, "address": null}}, {"geometry": {"type": "Point", "coordinates": [82.85262, 17.553652000000003]}, "type": "Feature", "properties": {"state": null, "code": "YLM", "name": "ELLAMANCHILI", "zone": null, "address": null}}, {"geometry": {"type": "Point", "coordinates": [77.655113, 10.476970999999999]}, "type": "Feature", "properties": {"state": null, "code": "CHPT", "name": "Chatrappatti", "zone": null, "address": null}}, {"geometry": {"type": "Point", "coordinates": [81.540406, 27.120389]}, "type": "Feature", "properties": {"state": null, "code": "JLD", "name": "JARWAL ROAD", "zone": null, "address": null}}, {"geometry": {"type": "Point", "coordinates": [83.923653, 21.822718000000002]}, "type": "Feature", "properties": {"state": null, "code": "BRJN", "name": "BRAJRAJNAGAR", "zone": null, "address": null}}, {"geometry": {"type": "Point", "coordinates": [81.69417800000001, 27.137698]}, "type": "Feature", "properties": {"state": null, "code": "CLJ", "name": "COLONELGANJ", "zone": null, "address": null}}, {"geometry": {"type": "Point", "coordinates": [81.8556626477, 27.1465555756]}, "type": "Feature", "properties": {"state": null, "code": "KTHL", "name": "KATHOLA", "zone": null, "address": null}}, {"geometry": {"type": "Point", "coordinates": [82.903373, 26.776435]}, "type": "Feature", "properties": {"state": null, "code": "MND", "name": "MUNDERWA", "zone": null, "address": null}}, {"geometry": {"type": "Point", "coordinates": [74.4806877, 19.780792299999998]}, "type": "Feature", "properties": {"state": "Maharashtra", "code": "SNSI", "name": "SAINAGAR SHIRDI", "zone": "CR", "address": "Near New Bus Stand Shirdi Sainagar, Maharashtra"}}, {"geometry": {"type": "Point", "coordinates": [71.738273, 21.822549000000002]}, "type": "Feature", "properties": {"state": "Gujarat", "code": "DLJ", "name": "DHOLA JN", "zone": "WR", "address": "Dhola, Gujarat"}}, {"geometry": {"type": "Point", "coordinates": [75.7655019775, 31.217555749800002]}, "type": "Feature", "properties": {"state": null, "code": "PGW", "name": "PHAGWARA JN", "zone": null, "address": null}}, {"geometry": null, "type": "Feature", "properties": {"state": null, "code": "YY-BINP", "name": "YY-BINP", "zone": null, "address": null}}, {"geometry": {"type": "Point", "coordinates": [75.521553, 28.777449]}, "type": "Feature", "properties": {"state": "Rajasthan", "code": "JUP", "name": "Jhunpa", "zone": "?", "address": "NH 65, Rajasthan"}}, {"geometry": null, "type": "Feature", "properties": {"state": null, "code": "XX-JSGB", "name": "XX-JSGB", "zone": null, "address": null}}, {"geometry": {"type": "Point", "coordinates": [84.017427, 21.862274]}, "type": "Feature", "properties": {"state": null, "code": "JSG", "name": "JHARSUGUDA JN", "zone": null, "address": null}}, {"geometry": {"type": "Point", "coordinates": [84.20715351199999, 26.2311244405]}, "type": "Feature", "properties": {"state": null, "code": "KYW", "name": "KARCHHUE", "zone": null, "address": null}}, {"geometry": {"type": "Point", "coordinates": [84.509909, 26.000739]}, "type": "Feature", "properties": {"state": null, "code": "MHRN", "name": "MAHENDRANATH", "zone": null, "address": null}}, {"geometry": {"type": "Point", "coordinates": [84.688889, 25.807401000000002]}, "type": "Feature", "properties": {"state": null, "code": "TKVR", "name": "TAPPA KHAJURIAY", "zone": null, "address": null}}, {"geometry": {"type": "Point", "coordinates": [78.42225009, 12.18134581]}, "type": "Feature", "properties": {"state": null, "code": "DPI", "name": "DODDAMPATTI", "zone": null, "address": null}}, {"geometry": null, "type": "Feature", "properties": {"state": null, "code": "SREE", "name": "SREE", "zone": null, "address": null}}, {"geometry": {"type": "Point", "coordinates": [71.892665, 26.950232]}, "type": "Feature", "properties": {"state": "Rajasthan", "code": "AQG", "name": "ASHAPURA GOMAT", "zone": "NWR", "address": "National Highway 15, Rajasthan"}}, {"geometry": {"type": "Point", "coordinates": [78.09669699999999, 11.612765]}, "type": "Feature", "properties": {"state": null, "code": "NEA", "name": "NEYKKARAPATTI", "zone": null, "address": null}}, {"geometry": {"type": "Point", "coordinates": [85.318477, 25.931048999999998]}, "type": "Feature", "properties": {"state": null, "code": "GRL", "name": "GORAUL", "zone": null, "address": null}}, {"geometry": null, "type": "Feature", "properties": {"state": null, "code": "DKJC", "name": "DKJC", "zone": null, "address": null}}, {"geometry": {"type": "Point", "coordinates": [85.339288, 25.979631]}, "type": "Feature", "properties": {"state": null, "code": "KHI", "name": "KURHANI", "zone": null, "address": null}}, {"geometry": {"type": "Point", "coordinates": [77.26580200000001, 11.117790999999999]}, "type": "Feature", "properties": {"state": null, "code": "VNJ", "name": "TIRUPPUR VANJIPALAYAM", "zone": null, "address": null}}, {"geometry": {"type": "Point", "coordinates": [76.954304, 11.019937]}, "type": "Feature", "properties": {"state": null, "code": "CBF", "name": "COIMBATORE NORTH", "zone": null, "address": null}}, {"geometry": {"type": "Point", "coordinates": [76.826966, 30.338918]}, "type": "Feature", "properties": {"state": null, "code": "UMB", "name": "AMBALA CANT JN", "zone": null, "address": null}}, {"geometry": {"type": "Point", "coordinates": [81.31786, 25.650642]}, "type": "Feature", "properties": {"state": null, "code": "SRO", "name": "SIRATHU", "zone": null, "address": null}}, {"geometry": {"type": "Point", "coordinates": [81.401934, 25.605607000000003]}, "type": "Feature", "properties": {"state": null, "code": "SJT", "name": "SHUJAATPUR", "zone": null, "address": null}}, {"geometry": {"type": "Point", "coordinates": [81.44201699999999, 25.585017]}, "type": "Feature", "properties": {"state": null, "code": "BDNP", "name": "BIDANPUR", "zone": null, "address": null}}, {"geometry": {"type": "Point", "coordinates": [77.04829951629999, 24.6093382288]}, "type": "Feature", "properties": {"state": "Rajasthan", "code": "MTPC", "name": "MOTIPURA CHAUKI", "zone": "WCR", "address": "Motipura, Rajasthan"}}, {"geometry": {"type": "Point", "coordinates": [85.987826, 25.367027]}, "type": "Feature", "properties": {"state": null, "code": "HTZ", "name": "HATHIDAH JN", "zone": null, "address": null}}, {"geometry": null, "type": "Feature", "properties": {"state": null, "code": "TSKG", "name": "TINSUKIA GOODS", "zone": null, "address": null}}, {"geometry": {"type": "Point", "coordinates": [90.76188, 26.001459]}, "type": "Feature", "properties": {"state": "Assam", "code": "DDNI", "name": "DUDHNOI", "zone": "NFR", "address": "Dudhnoi Railway Station, Assam"}}, {"geometry": {"type": "Point", "coordinates": [77.350991, 28.067751]}, "type": "Feature", "properties": {"state": null, "code": "RDE", "name": "RUNDHI", "zone": null, "address": null}}, {"geometry": {"type": "Point", "coordinates": [80.89123400000001, 27.081066999999997]}, "type": "Feature", "properties": {"state": "Uttar Pradesh", "code": "IJ", "name": "ITAUNJA", "zone": "NER", "address": "Itaunja, Uttar Pradesh"}}, {"geometry": {"type": "Point", "coordinates": [70.866078, 25.722252]}, "type": "Feature", "properties": {"state": "Rajasthan", "code": "RMX", "name": "Ramsar", "zone": "NWR", "address": "Barmer, Rajasthan"}}, {"geometry": {"type": "Point", "coordinates": [79.813946, 28.614977999999997]}, "type": "Feature", "properties": {"state": "Uttar Pradesh", "code": "PBE", "name": "PILIBHIT JN", "zone": "NER", "address": "Pilibhit, Uttar Pradesh"}}, {"geometry": {"type": "Point", "coordinates": [75.64547982849999, 28.5301320576]}, "type": "Feature", "properties": {"state": "Rajasthan", "code": "RMB", "name": "Rampura Beri", "zone": "NWR", "address": "Rampura Bhal, Rajasthan"}}, {"geometry": {"type": "Point", "coordinates": [83.11925000000001, 25.278149]}, "type": "Feature", "properties": {"state": null, "code": "MGS", "name": "MUGHAL SARAI JN", "zone": null, "address": null}}, {"geometry": {"type": "Point", "coordinates": [74.993046, 28.169397]}, "type": "Feature", "properties": {"state": "Rajasthan", "code": "RSWT", "name": "Ramgarh Shekhawati", "zone": "NWR", "address": "Ramgarh, Rajasthan"}}, {"geometry": {"type": "Point", "coordinates": [78.27473099999999, 29.035800000000002]}, "type": "Feature", "properties": {"state": null, "code": "BKNA", "name": "BAKAINA HALT", "zone": null, "address": null}}, {"geometry": {"type": "Point", "coordinates": [77.715594, 22.75274]}, "type": "Feature", "properties": {"state": null, "code": "HBD", "name": "HOSHANGABAD", "zone": null, "address": null}}, {"geometry": {"type": "Point", "coordinates": [79.319493, 23.860522]}, "type": "Feature", "properties": {"state": null, "code": "ANA", "name": "ASLANA", "zone": null, "address": null}}, {"geometry": {"type": "Point", "coordinates": [77.6812826, 22.7871143]}, "type": "Feature", "properties": {"state": null, "code": "BNI", "name": "BUDNI", "zone": null, "address": null}}, {"geometry": null, "type": "Feature", "properties": {"state": null, "code": "YY-IDHW", "name": "YY-IDHW", "zone": null, "address": null}}, {"geometry": {"type": "Point", "coordinates": [94.85656900000001, 27.325566]}, "type": "Feature", "properties": {"state": "Assam", "code": "DMGN", "name": "DHAMALGAON", "zone": "NFR", "address": "A T Rd, Assam"}}, {"geometry": {"type": "Point", "coordinates": [78.463527, 17.404048000000003]}, "type": "Feature", "properties": {"state": "Andhra Pradesh", "code": "LKPL", "name": "LAKDIKAPUL", "zone": "SCR", "address": "Hyderabad, Andhra Pradesh"}}, {"geometry": {"type": "Point", "coordinates": [76.814085, 22.052142]}, "type": "Feature", "properties": {"state": "Madhya Pradesh", "code": "BRUD", "name": "BARUD", "zone": "WCR", "address": "Khandwa, Madhya Pradesh"}}, {"geometry": {"type": "Point", "coordinates": [73.83729, 19.897509]}, "type": "Feature", "properties": {"state": null, "code": "DVL", "name": "DEVLALI", "zone": null, "address": null}}, {"geometry": {"type": "Point", "coordinates": [79.76127199999999, 22.253004999999998]}, "type": "Feature", "properties": {"state": null, "code": "JRTR", "name": "Jurtara", "zone": null, "address": null}}, {"geometry": {"type": "Point", "coordinates": [81.250615, 24.537122]}, "type": "Feature", "properties": {"state": "Madhya Pradesh", "code": "REWA", "name": "REWA", "zone": "WCR", "address": "Rewa, Madhya Pradesh"}}, {"geometry": {"type": "Point", "coordinates": [72.433842, 22.731982]}, "type": "Feature", "properties": {"state": "Gujarat", "code": "DOK", "name": "DHOLKA", "zone": "WR", "address": "Bagodara Dholka, Gujarat"}}, {"geometry": {"type": "Point", "coordinates": [73.0952734283, 22.418331636999998]}, "type": "Feature", "properties": {"state": null, "code": "NDR", "name": "NANDESARI", "zone": null, "address": null}}, {"geometry": {"type": "Point", "coordinates": [73.120353, 22.050722]}, "type": "Feature", "properties": {"state": null, "code": "MYG", "name": "MIYAGAM KARJAN", "zone": null, "address": null}}, {"geometry": {"type": "Point", "coordinates": [79.849079, 25.306914]}, "type": "Feature", "properties": {"state": "Uttar Pradesh", "code": "MBA", "name": "MAHOBA", "zone": "NCR", "address": "Junction Point - Khajuraho, Uttar Pradesh"}}, {"geometry": {"type": "Point", "coordinates": [80.198945, 22.418426]}, "type": "Feature", "properties": {"state": "Madhya Pradesh", "code": "JGZ", "name": "Jamgaon", "zone": "SECR", "address": "Bamhani, Madhya Pradesh"}}, {"geometry": {"type": "Point", "coordinates": [84.46243313289999, 24.8399006513]}, "type": "Feature", "properties": {"state": null, "code": "BHKH", "name": "BAGHOI KUSA", "zone": null, "address": null}}, {"geometry": {"type": "Point", "coordinates": [77.31077099999999, 28.746571]}, "type": "Feature", "properties": {"state": "Uttar Pradesh", "code": "NOLI", "name": "NOLI", "zone": "NR", "address": "Ghaziabad, Uttar Pradesh"}}, {"geometry": {"type": "Point", "coordinates": [77.26134099999999, 29.012729]}, "type": "Feature", "properties": {"state": "Uttar Pradesh", "code": "SUJR", "name": "SUJRA", "zone": "NR", "address": "State Highway 57, Uttar Pradesh"}}, {"geometry": {"type": "Point", "coordinates": [72.86546467803419, 21.990791167399735]}, "type": "Feature", "properties": {"state": "Gujarat", "code": "AMOD", "name": "Amod", "zone": "WR", "address": "Amod, Gujarat"}}, {"geometry": {"type": "Point", "coordinates": [73.09899399999999, 21.991872]}, "type": "Feature", "properties": {"state": null, "code": "LKD", "name": "LAKODARA", "zone": null, "address": null}}, {"geometry": {"type": "Point", "coordinates": [73.23136643506587, 21.439673931772646]}, "type": "Feature", "properties": {"state": "Gujarat", "code": "VKL", "name": "Vankal", "zone": "WR", "address": "SH 166, Gujarat"}}, {"geometry": {"type": "Point", "coordinates": [72.833211, 18.97695]}, "type": "Feature", "properties": {"state": "Maharashtra", "code": "BY", "name": "BYCULLA", "zone": "CR", "address": "Mumbai, Maharashtra"}}, {"geometry": {"type": "Point", "coordinates": [85.30109021000001, 25.858316719999998]}, "type": "Feature", "properties": {"state": null, "code": "BNR", "name": "BHAGWANPUR", "zone": null, "address": null}}, {"geometry": {"type": "Point", "coordinates": [76.21354088187218, 14.826788325296278]}, "type": "Feature", "properties": {"state": "Tamil Nadu", "code": "KTY", "name": "Kotturu", "zone": "SWR", "address": "Kothur Rd, Tamil Nadu"}}, {"geometry": {"type": "Point", "coordinates": [94.143709, 26.685532]}, "type": "Feature", "properties": {"state": "Assam", "code": "BLMR", "name": "Bhalukmara", "zone": "NFR", "address": "Bhalukmara, Assam"}}, {"geometry": {"type": "Point", "coordinates": [77.31896504759789, 21.163199753077336]}, "type": "Feature", "properties": {"state": "Maharashtra", "code": "ANJ", "name": "Anjangaon", "zone": "CR", "address": "Anjangaon, Maharashtra"}}, {"geometry": {"type": "Point", "coordinates": [88.306807, 23.685277]}, "type": "Feature", "properties": {"state": "West Bengal", "code": "DEB", "name": "Debagram", "zone": "ER", "address": "Debagram, West Bengal"}}, {"geometry": {"type": "Point", "coordinates": [77.51926277764142, 21.27760302246017]}, "type": "Feature", "properties": {"state": "Maharashtra", "code": "ELP", "name": "Achalpur", "zone": "CR", "address": "Dist. Amravati, Maharashtra"}}, {"geometry": {"type": "Point", "coordinates": [88.384597, 23.610275]}, "type": "Feature", "properties": {"state": "West Bengal", "code": "BTY", "name": "Bethuadahari", "zone": "ER", "address": "Bethuadahari, West Bengal"}}, {"geometry": {"type": "Point", "coordinates": [78.65141943097115, 20.74690547756532]}, "type": "Feature", "properties": {"state": "Maharashtra", "code": "WARUD", "name": "Warud", "zone": "CR", "address": "Wardha, Maharashtra"}}, {"geometry": null, "type": "Feature", "properties": {"state": null, "code": "BVAC", "name": "BVAC", "zone": null, "address": null}}, {"geometry": null, "type": "Feature", "properties": {"state": null, "code": "BVBC", "name": "BVBC", "zone": null, "address": null}}, {"geometry": {"type": "Point", "coordinates": [79.84618068672717, 10.686877168293023]}, "type": "Feature", "properties": {"state": "Tamil Nadu", "code": "VLKN", "name": "Velankanni", "zone": "?", "address": "Velankanni, Tamil Nadu"}}, {"geometry": {"type": "Point", "coordinates": [81.112395, 16.484823]}, "type": "Feature", "properties": {"state": "Andhra Pradesh", "code": "PCU", "name": "PUTLACHERUVU", "zone": "SCR", "address": "Putlacheruvu, Andhra Pradesh"}}, {"geometry": {"type": "Point", "coordinates": [85.3090478906, 25.892949366]}, "type": "Feature", "properties": {"state": null, "code": "BNPT", "name": "BENNIPATTI PIRAPUR", "zone": null, "address": null}}, {"geometry": {"type": "Point", "coordinates": [76.573236, 20.813007000000002]}, "type": "Feature", "properties": {"state": null, "code": "JM", "name": "JALAMB JN", "zone": null, "address": null}}, {"geometry": {"type": "Point", "coordinates": [82.79406, 18.346936]}, "type": "Feature", "properties": {"state": "Andhra Pradesh", "code": "GPJ", "name": "Gorapur", "zone": "ECoR", "address": "Jeypore Rd, Andhra Pradesh"}}, {"geometry": {"type": "Point", "coordinates": [80.16618146561086, 13.114499981582952]}, "type": "Feature", "properties": {"state": "", "code": "ABEO", "name": "Pattaravakkam", "zone": "SR", "address": ""}}, {"geometry": {"type": "Point", "coordinates": [76.690331, 20.801724]}, "type": "Feature", "properties": {"state": null, "code": "SEG", "name": "SHEGAON", "zone": null, "address": null}}, {"geometry": {"type": "Point", "coordinates": [80.1163395764, 22.2718946035]}, "type": "Feature", "properties": {"state": "Madhya Pradesh", "code": "GDU", "name": "Gudru Halt", "zone": "SECR", "address": "Lamta, Madhya Pradesh"}}, {"geometry": {"type": "Point", "coordinates": [87.95045644976199, 23.458049719226736]}, "type": "Feature", "properties": {"state": "West Bengal", "code": "BGNA", "name": "Balgona", "zone": "ER", "address": "Balgona, West Bengal"}}, {"geometry": {"type": "Point", "coordinates": [88.573216, 23.206506]}, "type": "Feature", "properties": {"state": "West Bengal", "code": "KLNP", "name": "Kalinarayanpur", "zone": "ER", "address": "Ranaghat-Bagula Bypass, West Bengal"}}, {"geometry": {"type": "Point", "coordinates": [76.755353, 20.761640999999997]}, "type": "Feature", "properties": {"state": null, "code": "NGZ", "name": "S K NAGJIHARI", "zone": null, "address": null}}, {"geometry": {"type": "Point", "coordinates": [76.815865, 20.724519]}, "type": "Feature", "properties": {"state": null, "code": "PS", "name": "PARAS", "zone": null, "address": null}}, {"geometry": {"type": "Point", "coordinates": [88.08753041, 22.15295838]}, "type": "Feature", "properties": {"state": "West Bengal", "code": "BRDB", "name": "Barda", "zone": "SER", "address": "Sutahata, West Bengal"}}, {"geometry": {"type": "Point", "coordinates": [76.890093, 20.720684]}, "type": "Feature", "properties": {"state": null, "code": "GAO", "name": "GAIGAON", "zone": null, "address": null}}, {"geometry": {"type": "Point", "coordinates": [79.468096, 21.261121]}, "type": "Feature", "properties": {"state": null, "code": "RRL", "name": "REWRAL", "zone": null, "address": null}}, {"geometry": {"type": "Point", "coordinates": [79.550792, 21.242242]}, "type": "Feature", "properties": {"state": null, "code": "KHAT", "name": "KHAT", "zone": null, "address": null}}, {"geometry": {"type": "Point", "coordinates": [79.64752299999999, 21.238512]}, "type": "Feature", "properties": {"state": null, "code": "BRD", "name": "BHANDARA ROAD", "zone": null, "address": null}}, {"geometry": {"type": "Point", "coordinates": [79.71240900000001, 21.263021]}, "type": "Feature", "properties": {"state": null, "code": "KOKA", "name": "KOKA", "zone": null, "address": null}}, {"geometry": {"type": "Point", "coordinates": [83.678086, 21.857535000000002]}, "type": "Feature", "properties": {"state": null, "code": "DAO", "name": "DAGHORA", "zone": null, "address": null}}, {"geometry": {"type": "Point", "coordinates": [83.742815, 21.876503999999997]}, "type": "Feature", "properties": {"state": null, "code": "HGR", "name": "HEMAGIRI", "zone": null, "address": null}}, {"geometry": {"type": "Point", "coordinates": [80.108853, 22.425676]}, "type": "Feature", "properties": {"state": "Madhya Pradesh", "code": "NIR", "name": "Nainpur Junction", "zone": "SECR", "address": "Nainpur, Madhya Pradesh"}}, {"geometry": {"type": "Point", "coordinates": [94.3939129431, 26.7081333353]}, "type": "Feature", "properties": {"state": "Assam", "code": "NCH", "name": "NAKACHARI", "zone": "NFR", "address": "Mariani, Assam"}}, {"geometry": {"type": "Point", "coordinates": [89.534048, 26.523279]}, "type": "Feature", "properties": {"state": "West Bengal", "code": "APDJ", "name": "ALIPUR DUAR JN", "zone": "NFR", "address": "03564-255091, West Bengal"}}, {"geometry": {"type": "Point", "coordinates": [81.4918665, 25.5591917]}, "type": "Feature", "properties": {"state": null, "code": "BRE", "name": "BHARWARI", "zone": null, "address": null}}, {"geometry": {"type": "Point", "coordinates": [88.05297200000001, 25.626133]}, "type": "Feature", "properties": {"state": "West Bengal", "code": "JTK", "name": "Jhitkia", "zone": "NFR", "address": "National Highway 34, West Bengal"}}, {"geometry": {"type": "Point", "coordinates": [81.55907499999999, 25.524992]}, "type": "Feature", "properties": {"state": null, "code": "MNJ", "name": "MANOHARGANJ", "zone": null, "address": null}}, {"geometry": {"type": "Point", "coordinates": [81.613788, 25.494982]}, "type": "Feature", "properties": {"state": null, "code": "SYWN", "name": "SAIYID SARAWAN", "zone": null, "address": null}}, {"geometry": {"type": "Point", "coordinates": [81.662491, 25.470171]}, "type": "Feature", "properties": {"state": null, "code": "MRE", "name": "MANAURI", "zone": null, "address": null}}, {"geometry": {"type": "Point", "coordinates": [81.741641, 25.44494]}, "type": "Feature", "properties": {"state": null, "code": "BMU", "name": "BAMHRAULI", "zone": null, "address": null}}, {"geometry": {"type": "Point", "coordinates": [81.789897, 25.439879]}, "type": "Feature", "properties": {"state": null, "code": "SFG", "name": "SUBEDARGANJ", "zone": null, "address": null}}, {"geometry": {"type": "Point", "coordinates": [80.627521, 16.295185999999998]}, "type": "Feature", "properties": {"state": null, "code": "KLX", "name": "KOLAKALUR", "zone": null, "address": null}}, {"geometry": {"type": "Point", "coordinates": [80.61690800000001, 16.379558]}, "type": "Feature", "properties": {"state": null, "code": "CLVR", "name": "CHILUVUR", "zone": null, "address": null}}, {"geometry": {"type": "Point", "coordinates": [81.726495, 17.007084]}, "type": "Feature", "properties": {"state": null, "code": "KVR", "name": "KOVVUR", "zone": null, "address": null}}, {"geometry": {"type": "Point", "coordinates": [81.77083, 17.007707]}, "type": "Feature", "properties": {"state": null, "code": "GVN", "name": "GODAVARI", "zone": null, "address": null}}, {"geometry": {"type": "Point", "coordinates": [76.75531600000001, 10.800919]}, "type": "Feature", "properties": {"state": null, "code": "KJKD", "name": "KANJIKODE", "zone": null, "address": null}}, {"geometry": {"type": "Point", "coordinates": [86.616164, 23.52693]}, "type": "Feature", "properties": {"state": "West Bengal", "code": "SNKR", "name": "Sanka", "zone": "SER", "address": "Garh Dhrubeswar, West Bengal"}}, {"geometry": {"type": "Point", "coordinates": [79.902424, 22.72003]}, "type": "Feature", "properties": {"state": "Madhya Pradesh", "code": "VNK", "name": "Binaiki", "zone": "SECR", "address": "Binaiki Railway Station, Madhya Pradesh"}}, {"geometry": {"type": "Point", "coordinates": [88.45836999999999, 22.277738]}, "type": "Feature", "properties": {"state": "West Bengal", "code": "GCN", "name": "Gocharan", "zone": "ER", "address": "Gocharan, West Bengal"}}, {"geometry": {"type": "Point", "coordinates": [79.545769, 22.075431]}, "type": "Feature", "properties": {"state": "Madhya Pradesh", "code": "SEY", "name": "Seoni", "zone": "SECR", "address": "Seoni, Madhya Pradesh"}}, {"geometry": {"type": "Point", "coordinates": [86.44032, 23.654478]}, "type": "Feature", "properties": {"state": "West Bengal", "code": "SDMD", "name": "Sudamdih", "zone": "SER", "address": "Jairampur More to Baliapur, West Bengal"}}, {"geometry": null, "type": "Feature", "properties": {"state": null, "code": "PCLS", "name": "PCLS", "zone": null, "address": null}}, {"geometry": {"type": "Point", "coordinates": [85.988748, 25.461768000000003]}, "type": "Feature", "properties": {"state": null, "code": "BJU", "name": "BARAUNI JN", "zone": null, "address": null}}, {"geometry": {"type": "Point", "coordinates": [79.432246, 23.836693]}, "type": "Feature", "properties": {"state": null, "code": "DMO", "name": "DAMOH", "zone": null, "address": null}}, {"geometry": {"type": "Point", "coordinates": [73.0346944543, 22.486628078200003]}, "type": "Feature", "properties": {"state": null, "code": "ADD", "name": "ADAS ROAD", "zone": null, "address": null}}, {"geometry": {"type": "Point", "coordinates": [71.16224249999999, 21.4155588]}, "type": "Feature", "properties": {"state": "Gujarat", "code": "CLC", "name": "Chalala", "zone": "WR", "address": "Chalala, Gujarat"}}, {"geometry": {"type": "Point", "coordinates": [73.1122662115, 22.405252095399998]}, "type": "Feature", "properties": {"state": null, "code": "RNO", "name": "RANOLI", "zone": null, "address": null}}, {"geometry": {"type": "Point", "coordinates": [74.024928, 26.012397]}, "type": "Feature", "properties": {"state": "Rajasthan", "code": "HP", "name": "HARIPUR", "zone": "NWR", "address": "Pali, Rajasthan"}}, {"geometry": {"type": "Point", "coordinates": [92.0348331158, 24.1506303119]}, "type": "Feature", "properties": {"state": "Tripura", "code": "KUGT", "name": "Kumarghat", "zone": "NFR", "address": "Kumarghat, Tripura"}}, {"geometry": {"type": "Point", "coordinates": [75.31064599999999, 19.859276]}, "type": "Feature", "properties": {"state": "Maharashtra", "code": "AWB", "name": "AURANGABAD", "zone": "SCR", "address": "Aurangabad, Maharashtra"}}, {"geometry": {"type": "Point", "coordinates": [77.21298975, 15.16697376]}, "type": "Feature", "properties": {"state": "Andhra Pradesh", "code": "BNL", "name": "BEVINAHALU", "zone": "SCR", "address": "Rayalaseema Region, Andhra Pradesh"}}, {"geometry": null, "type": "Feature", "properties": {"state": null, "code": "VMC", "name": "VMC", "zone": null, "address": null}}, {"geometry": {"type": "Point", "coordinates": [70.408254, 20.896131999999998]}, "type": "Feature", "properties": {"state": "Gujarat", "code": "SMNH", "name": "SOMNATH", "zone": "WR", "address": "Somnath, Gujarat"}}, {"geometry": {"type": "Point", "coordinates": [79.766287, 11.715119]}, "type": "Feature", "properties": {"state": "Tamil Nadu", "code": "CUPJ", "name": "CUDDALORE PORT", "zone": "SR", "address": "Cuddalore Township, Tamil Nadu"}}, {"geometry": {"type": "Point", "coordinates": [73.072387, 21.921578]}, "type": "Feature", "properties": {"state": null, "code": "PLJ", "name": "PALEJ", "zone": null, "address": null}}, {"geometry": {"type": "Point", "coordinates": [72.00004, 25.891938]}, "type": "Feature", "properties": {"state": "Rajasthan", "code": "GOLE", "name": "GOLE", "zone": "NWR", "address": "National Highway 112, Rajasthan"}}, {"geometry": null, "type": "Feature", "properties": {"state": null, "code": "BDX", "name": "BDX", "zone": null, "address": null}}, {"geometry": {"type": "Point", "coordinates": [79.91803499999999, 21.415039]}, "type": "Feature", "properties": {"state": null, "code": "TRO", "name": "TIRORA", "zone": null, "address": null}}, {"geometry": {"type": "Point", "coordinates": [83.564842, 21.874971000000002]}, "type": "Feature", "properties": {"state": null, "code": "JMG", "name": "JAMGA", "zone": null, "address": null}}, {"geometry": null, "type": "Feature", "properties": {"state": null, "code": "JMSY", "name": "JMSY", "zone": null, "address": null}}, {"geometry": {"type": "Point", "coordinates": [83.824844, 26.468381]}, "type": "Feature", "properties": {"state": null, "code": "AHLR", "name": "AHALYAPUR", "zone": null, "address": null}}, {"geometry": {"type": "Point", "coordinates": [80.640413, 16.242409000000002]}, "type": "Feature", "properties": {"state": null, "code": "TEL", "name": "TENALI JN", "zone": null, "address": null}}, {"geometry": {"type": "Point", "coordinates": [78.37926300000001, 13.707414]}, "type": "Feature", "properties": {"state": "Andhra Pradesh", "code": "TAT", "name": "Tummanamgutta", "zone": "SCR", "address": "Chennai - Anantpur Rd, Andhra Pradesh"}}, {"geometry": {"type": "Point", "coordinates": [81.690558, 16.965076999999997]}, "type": "Feature", "properties": {"state": null, "code": "CU", "name": "CHAGALLU", "zone": null, "address": null}}, {"geometry": {"type": "Point", "coordinates": [81.700939, 16.99331]}, "type": "Feature", "properties": {"state": null, "code": "PSDA", "name": "PASIVEDALA", "zone": null, "address": null}}, {"geometry": {"type": "Point", "coordinates": [72.59376099999999, 25.208689]}, "type": "Feature", "properties": {"state": "Rajasthan", "code": "MBGA", "name": "Marwar Bagra", "zone": "NWR", "address": "SH 31, Rajasthan"}}, {"geometry": {"type": "Point", "coordinates": [72.336284, 25.827638]}, "type": "Feature", "properties": {"state": "Rajasthan", "code": "JNE", "name": "JANIYANA", "zone": "NWR", "address": "State Highway 68, Rajasthan"}}, {"geometry": {"type": "Point", "coordinates": [72.57300699999999, 25.837202]}, "type": "Feature", "properties": {"state": "Rajasthan", "code": "SMR", "name": "SAMDHARI JN", "zone": "NWR", "address": "Barmer, Rajasthan"}}, {"geometry": {"type": "Point", "coordinates": [72.951414, 25.970783]}, "type": "Feature", "properties": {"state": "Rajasthan", "code": "SUT", "name": "SUTLANA", "zone": "NWR", "address": "Dundara, Rajasthan"}}, {"geometry": {"type": "Point", "coordinates": [69.615506, 21.643597999999997]}, "type": "Feature", "properties": {"state": "Gujarat", "code": "PBR", "name": "PORBANDAR", "zone": "WR", "address": "Porbandar, Gujarat"}}, {"geometry": {"type": "Point", "coordinates": [76.2025684888, 14.137920273699999]}, "type": "Feature", "properties": {"state": "Karnataka", "code": "CKVD", "name": "Chikkandawadi", "zone": "SWR", "address": "Chikkandawadi, Karnataka"}}, {"geometry": {"type": "Point", "coordinates": [75.712919, 27.105646]}, "type": "Feature", "properties": {"state": "Rajasthan", "code": "BHG", "name": "Bhaton Ki Gali", "zone": "NWR", "address": "Chomun, Rajasthan"}}, {"geometry": {"type": "Point", "coordinates": [74.33120188303292, 29.574220545495677]}, "type": "Feature", "properties": {"state": "Rajasthan", "code": "HMO", "name": "Hanumangarh Town", "zone": "NWR", "address": "Hanumangarh, Rajasthan"}}, {"geometry": {"type": "Point", "coordinates": [83.494054, 26.700858999999998]}, "type": "Feature", "properties": {"state": null, "code": "SANR", "name": "SARDARNAGAR", "zone": null, "address": null}}, {"geometry": {"type": "Point", "coordinates": [86.3146452, 24.182255899999998]}, "type": "Feature", "properties": {"state": "Jharkhand", "code": "GRD", "name": "Giridih", "zone": "ER", "address": "Giridih, Jharkhand"}}, {"geometry": {"type": "Point", "coordinates": [83.545894, 26.673882]}, "type": "Feature", "properties": {"state": null, "code": "CC", "name": "CHAURI CHAURA", "zone": null, "address": null}}, {"geometry": {"type": "Point", "coordinates": [79.5158922174, 18.023547297]}, "type": "Feature", "properties": {"state": null, "code": "KMPT", "name": "KOMATIPALLI", "zone": null, "address": null}}, {"geometry": {"type": "Point", "coordinates": [79.50184999999999, 18.078262]}, "type": "Feature", "properties": {"state": null, "code": "HSP", "name": "HASANPARTHI RD", "zone": null, "address": null}}, {"geometry": {"type": "Point", "coordinates": [70.734877, 25.741083]}, "type": "Feature", "properties": {"state": "Rajasthan", "code": "GGY", "name": "Gagariya", "zone": "NWR", "address": "State Highway 40, Rajasthan"}}, {"geometry": {"type": "Point", "coordinates": [83.969786, 26.353209]}, "type": "Feature", "properties": {"state": null, "code": "NNPR", "name": "NONAPAR", "zone": null, "address": null}}, {"geometry": {"type": "Point", "coordinates": [84.151979, 26.240309]}, "type": "Feature", "properties": {"state": null, "code": "MW", "name": "MAIRWA", "zone": null, "address": null}}, {"geometry": {"type": "Point", "coordinates": [77.3893135876, 11.1440279246]}, "type": "Feature", "properties": {"state": null, "code": "KUY", "name": "TIRUPPUR KULIPALAYAM", "zone": null, "address": null}}, {"geometry": {"type": "Point", "coordinates": [76.559421, 10.800415]}, "type": "Feature", "properties": {"state": null, "code": "PLL", "name": "PARLI", "zone": null, "address": null}}, {"geometry": {"type": "Point", "coordinates": [91.278481, 23.792417]}, "type": "Feature", "properties": {"state": "Tripura", "code": "AGTL", "name": "Agartala", "zone": "NFR", "address": "Agartala, Tripura"}}, {"geometry": {"type": "Point", "coordinates": [76.500232, 10.771526]}, "type": "Feature", "properties": {"state": null, "code": "MNY", "name": "MANKARAI", "zone": null, "address": null}}, {"geometry": {"type": "Point", "coordinates": [76.434467, 10.753217]}, "type": "Feature", "properties": {"state": null, "code": "LDY", "name": "LAKKITI", "zone": null, "address": null}}, {"geometry": {"type": "Point", "coordinates": [76.398385813, 10.7525187905]}, "type": "Feature", "properties": {"state": null, "code": "PLPM", "name": "PALAPPURAM", "zone": null, "address": null}}, {"geometry": {"type": "Point", "coordinates": [76.377993, 10.770046]}, "type": "Feature", "properties": {"state": null, "code": "OTP", "name": "OTTAPPALAM", "zone": null, "address": null}}, {"geometry": {"type": "Point", "coordinates": [76.323555, 10.749322]}, "type": "Feature", "properties": {"state": null, "code": "MNUR", "name": "MANNANUR", "zone": null, "address": null}}, {"geometry": {"type": "Point", "coordinates": [84.256142, 26.220819]}, "type": "Feature", "properties": {"state": null, "code": "ZRDE", "name": "JIRADEI", "zone": null, "address": null}}, {"geometry": {"type": "Point", "coordinates": [84.359267, 26.210724000000003]}, "type": "Feature", "properties": {"state": null, "code": "SV", "name": "SIWAN JN", "zone": null, "address": null}}, {"geometry": {"type": "Point", "coordinates": [84.415667, 26.162627999999998]}, "type": "Feature", "properties": {"state": null, "code": "PCK", "name": "PACHRUKHI", "zone": null, "address": null}}, {"geometry": {"type": "Point", "coordinates": [84.45894600000001, 26.086973]}, "type": "Feature", "properties": {"state": null, "code": "DDA", "name": "DURAUNDHA JN", "zone": null, "address": null}}, {"geometry": {"type": "Point", "coordinates": [84.49649600000001, 26.022117]}, "type": "Feature", "properties": {"state": null, "code": "CW", "name": "CHAINWA", "zone": null, "address": null}}, {"geometry": {"type": "Point", "coordinates": [71.923129, 26.930571]}, "type": "Feature", "properties": {"state": "Rajasthan", "code": "POK", "name": "POKRAN", "zone": "NWR", "address": "National Highway 15, Rajasthan"}}, {"geometry": {"type": "Point", "coordinates": [71.718687, 26.972848]}, "type": "Feature", "properties": {"state": "Rajasthan", "code": "OCH", "name": "ODHANIYA CHACHA", "zone": "NWR", "address": "National Highway 15, Rajasthan"}}, {"geometry": {"type": "Point", "coordinates": [84.53637, 25.967099]}, "type": "Feature", "properties": {"state": null, "code": "EKMA", "name": "EKMA", "zone": null, "address": null}}, {"geometry": {"type": "Point", "coordinates": [84.591425, 25.90709]}, "type": "Feature", "properties": {"state": null, "code": "DDP", "name": "DAUDPUR", "zone": null, "address": null}}, {"geometry": {"type": "Point", "coordinates": [84.65281399999999, 25.851866]}, "type": "Feature", "properties": {"state": null, "code": "KPS", "name": "KOPA SAMHOTA", "zone": null, "address": null}}, {"geometry": {"type": "Point", "coordinates": [85.29179, 25.817069]}, "type": "Feature", "properties": {"state": null, "code": "BTHL", "name": "BITHAULI", "zone": null, "address": null}}, {"geometry": {"type": "Point", "coordinates": [83.667801, 26.594934000000002]}, "type": "Feature", "properties": {"state": null, "code": "GB", "name": "GAURI BAZAR", "zone": null, "address": null}}, {"geometry": {"type": "Point", "coordinates": [83.7385572, 26.5526634]}, "type": "Feature", "properties": {"state": null, "code": "BALR", "name": "BAITALPUR", "zone": null, "address": null}}, {"geometry": {"type": "Point", "coordinates": [83.7819590961, 26.5076811676]}, "type": "Feature", "properties": {"state": null, "code": "DEOS", "name": "DEORIA SADAR", "zone": null, "address": null}}, {"geometry": {"type": "Point", "coordinates": [83.880179, 26.425483]}, "type": "Feature", "properties": {"state": null, "code": "NRA", "name": "NUNKHAR", "zone": null, "address": null}}, {"geometry": {"type": "Point", "coordinates": [89.786242, 26.225947]}, "type": "Feature", "properties": {"state": null, "code": "AGMN", "name": "Agomoni", "zone": null, "address": null}}, {"geometry": {"type": "Point", "coordinates": [72.93723505, 19.14200998]}, "type": "Feature", "properties": {"state": null, "code": "BND", "name": "BHANDUP", "zone": null, "address": null}}, {"geometry": {"type": "Point", "coordinates": [74.858025, 31.631511999999997]}, "type": "Feature", "properties": {"state": null, "code": "ASR", "name": "AMRITSAR JN", "zone": null, "address": null}}, {"geometry": {"type": "Point", "coordinates": [76.271415, 10.705843]}, "type": "Feature", "properties": {"state": null, "code": "MUC", "name": "MULLURKARA", "zone": null, "address": null}}, {"geometry": {"type": "Point", "coordinates": [76.237041, 10.648956]}, "type": "Feature", "properties": {"state": null, "code": "WKI", "name": "WADAKANCHERI", "zone": null, "address": null}}, {"geometry": {"type": "Point", "coordinates": [73.90724800000001, 29.324152]}, "type": "Feature", "properties": {"state": "Rajasthan", "code": "SOG", "name": "SURATGARH JN", "zone": "NWR", "address": "National Highway 15, Rajasthan"}}, {"geometry": {"type": "Point", "coordinates": [80.094149, 21.079845]}, "type": "Feature", "properties": {"state": "Maharashtra", "code": "SNV", "name": "Sondad", "zone": "SECR", "address": "National Highway 6, Maharashtra"}}, {"geometry": {"type": "Point", "coordinates": [75.000562, 28.125576]}, "type": "Feature", "properties": {"state": "Rajasthan", "code": "QMRS", "name": "Kayamsar", "zone": "NWR", "address": "State Highway 41, Rajasthan"}}, {"geometry": {"type": "Point", "coordinates": [75.758306, 16.878268000000002]}, "type": "Feature", "properties": {"state": "Karnataka", "code": "AYB", "name": "Aliyabad", "zone": "SWR", "address": "Bijapur, Karnataka"}}, {"geometry": {"type": "Point", "coordinates": [70.276543, 25.742614]}, "type": "Feature", "properties": {"state": "Rajasthan", "code": "MBF", "name": "Munabao", "zone": "NWR", "address": "Barmer, Rajasthan"}}, {"geometry": {"type": "Point", "coordinates": [85.827112, 21.243022]}, "type": "Feature", "properties": {"state": "Orissa", "code": "CLDR", "name": "Chilikidara", "zone": "ECoR", "address": "Orissa, Orissa"}}, {"geometry": {"type": "Point", "coordinates": [72.95507400000001, 27.835319]}, "type": "Feature", "properties": {"state": "Rajasthan", "code": "KLYT", "name": "Kolayat", "zone": "NWR", "address": "Kolayat, Rajasthan"}}, {"geometry": {"type": "Point", "coordinates": [88.798213, 26.882215]}, "type": "Feature", "properties": {"state": "West Bengal", "code": "CLD", "name": "CHALSA JN", "zone": "NFR", "address": "Chalsa, West Bengal"}}, {"geometry": {"type": "Point", "coordinates": [88.9704, 26.880279]}, "type": "Feature", "properties": {"state": "West Bengal", "code": "CRX", "name": "CARRON", "zone": "NFR", "address": "National Highway 31C, West Bengal"}}, {"geometry": {"type": "Point", "coordinates": [77.774856, 22.61521]}, "type": "Feature", "properties": {"state": null, "code": "ETF", "name": "ITARSI F CABIN", "zone": null, "address": null}}, {"geometry": {"type": "Point", "coordinates": [86.953082, 24.404224]}, "type": "Feature", "properties": {"state": "Jharkhand", "code": "CNPI", "name": "Chandanpahari", "zone": "ER", "address": "Chandanpahari, Jharkhand"}}, {"geometry": {"type": "Point", "coordinates": [77.647526, 22.828141000000002]}, "type": "Feature", "properties": {"state": null, "code": "MIG", "name": "MIDGHAT", "zone": null, "address": null}}, {"geometry": {"type": "Point", "coordinates": [79.575956, 23.848205999999998]}, "type": "Feature", "properties": {"state": null, "code": "BNU", "name": "BANDAKPUR", "zone": null, "address": null}}, {"geometry": {"type": "Point", "coordinates": [75.599508, 27.293803]}, "type": "Feature", "properties": {"state": "Rajasthan", "code": "COD", "name": "Chhota Gudha", "zone": "NWR", "address": "Ringas, Rajasthan"}}, {"geometry": {"type": "Point", "coordinates": [77.638968, 22.864326000000002]}, "type": "Feature", "properties": {"state": null, "code": "CHQ", "name": "CHOKA", "zone": null, "address": null}}, {"geometry": {"type": "Point", "coordinates": [78.765801, 28.831621000000002]}, "type": "Feature", "properties": {"state": null, "code": "MB", "name": "MORADABAD", "zone": null, "address": null}}, {"geometry": {"type": "Point", "coordinates": [76.85285999999999, 29.291379]}, "type": "Feature", "properties": {"state": "Haryana", "code": "IRA", "name": "ISRANA", "zone": "NR", "address": "Israna, Haryana"}}, {"geometry": {"type": "Point", "coordinates": [73.132981, 22.380046]}, "type": "Feature", "properties": {"state": null, "code": "KRCA", "name": "KARACHIYA YARD", "zone": null, "address": null}}, {"geometry": {"type": "Point", "coordinates": [73.1431251, 22.3662226]}, "type": "Feature", "properties": {"state": null, "code": "BJW", "name": "BAJVA", "zone": null, "address": null}}, {"geometry": {"type": "Point", "coordinates": [79.718347, 11.332713]}, "type": "Feature", "properties": {"state": "Tamil Nadu", "code": "CLN", "name": "KOLLIDAM", "zone": "SR", "address": "Vallampadugai, Tamil Nadu"}}, {"geometry": null, "type": "Feature", "properties": {"state": null, "code": "OSHI", "name": "OSHI", "zone": null, "address": null}}, {"geometry": {"type": "Point", "coordinates": [74.629979, 24.939557999999998]}, "type": "Feature", "properties": {"state": "Rajasthan", "code": "CNA", "name": "CHANDERIYA", "zone": "WR", "address": "Chittorgarh, Rajasthan"}}, {"geometry": {"type": "Point", "coordinates": [79.74565299999999, 25.307555999999998]}, "type": "Feature", "properties": {"state": "Uttar Pradesh", "code": "CRC", "name": "CHARKHARI ROAD", "zone": "NCR", "address": "Charkhari, Uttar Pradesh"}}, {"geometry": {"type": "Point", "coordinates": [83.934035, 26.381257]}, "type": "Feature", "properties": {"state": null, "code": "BTT", "name": "BHATNI JN", "zone": null, "address": null}}, {"geometry": {"type": "Point", "coordinates": [88.266903, 24.122264]}, "type": "Feature", "properties": {"state": "West Bengal", "code": "CSZ", "name": "Cossimbazar", "zone": "ER", "address": "Berhampore, West Bengal"}}, {"geometry": {"type": "Point", "coordinates": [73.048979, 21.85838]}, "type": "Feature", "properties": {"state": null, "code": "VRE", "name": "VAREDIYA", "zone": null, "address": null}}, {"geometry": {"type": "Point", "coordinates": [73.030592, 21.807541]}, "type": "Feature", "properties": {"state": null, "code": "NIU", "name": "NABIPUR", "zone": null, "address": null}}, {"geometry": null, "type": "Feature", "properties": {"state": null, "code": "KTTY", "name": "KTTY", "zone": null, "address": null}}, {"geometry": {"type": "Point", "coordinates": [73.010489, 21.753134000000003]}, "type": "Feature", "properties": {"state": null, "code": "CVJ", "name": "CHAVAJ", "zone": null, "address": null}}, {"geometry": {"type": "Point", "coordinates": [73.000633, 21.623889]}, "type": "Feature", "properties": {"state": null, "code": "AKV", "name": "ANKLESHWAR JN", "zone": null, "address": null}}, {"geometry": {"type": "Point", "coordinates": [92.71665800000001, 24.984962]}, "type": "Feature", "properties": {"state": "Assam", "code": "CNE", "name": "CHANDRANATHPUR", "zone": "NFR", "address": "National Highway 54, Assam"}}, {"geometry": {"type": "Point", "coordinates": [72.978371, 21.535197]}, "type": "Feature", "properties": {"state": null, "code": "PAO", "name": "PANOLI", "zone": null, "address": null}}, {"geometry": {"type": "Point", "coordinates": [73.86881457700001, 25.946542716]}, "type": "Feature", "properties": {"state": "Rajasthan", "code": "CNL", "name": "CHANDAWAL", "zone": "NWR", "address": "Pali, Rajasthan"}}, {"geometry": {"type": "Point", "coordinates": [73.7180903, 25.82438]}, "type": "Feature", "properties": {"state": "Rajasthan", "code": "BFY", "name": "BHESANA", "zone": "NWR", "address": "Marwar, Rajasthan"}}, {"geometry": {"type": "Point", "coordinates": [72.969512, 21.501091000000002]}, "type": "Feature", "properties": {"state": null, "code": "HAT", "name": "HATHURAN", "zone": null, "address": null}}, {"geometry": {"type": "Point", "coordinates": [78.257278, 12.97518]}, "type": "Feature", "properties": {"state": "Karnataka", "code": "COL", "name": "Coromandel", "zone": "SWR", "address": "KGF, Karnataka"}}, {"geometry": {"type": "Point", "coordinates": [72.91647999999999, 21.37682]}, "type": "Feature", "properties": {"state": null, "code": "KDSD", "name": "KUDSAD", "zone": null, "address": null}}, {"geometry": {"type": "Point", "coordinates": [72.890287, 21.317203]}, "type": "Feature", "properties": {"state": null, "code": "SYN", "name": "SAYAN", "zone": null, "address": null}}, {"geometry": {"type": "Point", "coordinates": [79.290097, 28.213407]}, "type": "Feature", "properties": {"state": "Uttar Pradesh", "code": "MQP", "name": "Makrandpur", "zone": "NER", "address": "Aonla- Bareilly Link Rd, Uttar Pradesh"}}, {"geometry": {"type": "Point", "coordinates": [72.880104, 21.294043]}, "type": "Feature", "properties": {"state": null, "code": "GTX", "name": "GOTHANGAM", "zone": null, "address": null}}, {"geometry": {"type": "Point", "coordinates": [76.207809, 10.596938999999999]}, "type": "Feature", "properties": {"state": null, "code": "MGK", "name": "MULANGUNNATHUKAVU", "zone": null, "address": null}}, {"geometry": {"type": "Point", "coordinates": [77.172004, 28.591905]}, "type": "Feature", "properties": {"state": "Delhi NCT", "code": "CNKP", "name": "CHANAKYAPURI", "zone": "NR", "address": "Chanakyapuri, Delhi NCT"}}, {"geometry": {"type": "Point", "coordinates": [72.85479600000001, 21.232602]}, "type": "Feature", "properties": {"state": null, "code": "URN", "name": "UTRAN", "zone": null, "address": null}}, {"geometry": {"type": "Point", "coordinates": [72.840793, 21.206568]}, "type": "Feature", "properties": {"state": null, "code": "ST", "name": "SURAT", "zone": null, "address": null}}, {"geometry": {"type": "Point", "coordinates": [72.851461, 21.171156]}, "type": "Feature", "properties": {"state": null, "code": "UDN", "name": "UDHNA JN", "zone": null, "address": null}}, {"geometry": {"type": "Point", "coordinates": [80.605456, 16.188934]}, "type": "Feature", "properties": {"state": null, "code": "VRU", "name": "VALIVERU", "zone": null, "address": null}}, {"geometry": {"type": "Point", "coordinates": [81.63387399999999, 16.843925]}, "type": "Feature", "properties": {"state": null, "code": "MRPL", "name": "MARAMPALLI", "zone": null, "address": null}}, {"geometry": {"type": "Point", "coordinates": [81.67550399999999, 16.898297]}, "type": "Feature", "properties": {"state": null, "code": "NDD", "name": "NIDADAVOLU JN", "zone": null, "address": null}}, {"geometry": {"type": "Point", "coordinates": [80.287678, 21.416128]}, "type": "Feature", "properties": {"state": null, "code": "GDM", "name": "GUDMA", "zone": null, "address": null}}, {"geometry": {"type": "Point", "coordinates": [83.25998102000001, 21.975035039999998]}, "type": "Feature", "properties": {"state": null, "code": "BEF", "name": "BHUPDEOPUR", "zone": null, "address": null}}, {"geometry": {"type": "Point", "coordinates": [83.39067, 21.891288999999997]}, "type": "Feature", "properties": {"state": null, "code": "RIG", "name": "RAIGARH", "zone": null, "address": null}}, {"geometry": {"type": "Point", "coordinates": [83.482238, 21.883182]}, "type": "Feature", "properties": {"state": null, "code": "KRL", "name": "KOTARLIA", "zone": null, "address": null}}, {"geometry": {"type": "Point", "coordinates": [78.775924, 10.160613]}, "type": "Feature", "properties": {"state": "Tamil Nadu", "code": "CTND", "name": "Chettinad", "zone": "SR", "address": "Kanadukathan, Tamil Nadu"}}, {"geometry": {"type": "Point", "coordinates": [78.25287, 28.919358]}, "type": "Feature", "properties": {"state": "Uttar Pradesh", "code": "SEPR", "name": "SHERPUR", "zone": "NR", "address": "State Highway 51, Uttar Pradesh"}}, {"geometry": {"type": "Point", "coordinates": [72.914294, 20.946851]}, "type": "Feature", "properties": {"state": "Gujarat", "code": "NVS", "name": "NAVSARI", "zone": "WR", "address": "Navsari, Gujarat"}}, {"geometry": {"type": "Point", "coordinates": [74.268446, 30.60775]}, "type": "Feature", "properties": {"state": "Punjab", "code": "JBD", "name": "Jalalabad", "zone": "NR", "address": "Jalalabad, Punjab"}}, {"geometry": {"type": "Point", "coordinates": [88.67133299999999, 26.859243000000003]}, "type": "Feature", "properties": {"state": "West Bengal", "code": "DDM", "name": "DAM DIM", "zone": "NFR", "address": "National Highway 31, West Bengal"}}, {"geometry": {"type": "Point", "coordinates": [70.655356, 23.417869]}, "type": "Feature", "properties": {"state": "Gujarat", "code": "COE", "name": "CHITROD", "zone": "WR", "address": "Kutch, Gujarat"}}, {"geometry": {"type": "Point", "coordinates": [75.70272, 27.158223]}, "type": "Feature", "properties": {"state": "Rajasthan", "code": "COM", "name": "Chomun Samod", "zone": "NWR", "address": "Chomun, Rajasthan"}}, {"geometry": {"type": "Point", "coordinates": [76.78753499999999, 30.395686]}, "type": "Feature", "properties": {"state": "Haryana", "code": "DKT", "name": "DHULKOT", "zone": "NR", "address": "Ambala City, Haryana"}}, {"geometry": {"type": "Point", "coordinates": [81.21464405030001, 25.7036520692]}, "type": "Feature", "properties": {"state": null, "code": "KUW", "name": "KANWAR", "zone": null, "address": null}}, {"geometry": {"type": "Point", "coordinates": [83.267724, 25.261093]}, "type": "Feature", "properties": {"state": null, "code": "CDMR", "name": "CHANDAULI MJHWR", "zone": null, "address": null}}, {"geometry": null, "type": "Feature", "properties": {"state": null, "code": "IGPX", "name": "IGPX", "zone": null, "address": null}}, {"geometry": {"type": "Point", "coordinates": [81.102658, 25.761853]}, "type": "Feature", "properties": {"state": null, "code": "KGA", "name": "KHAGA", "zone": null, "address": null}}, {"geometry": {"type": "Point", "coordinates": [81.16560600000001, 25.730035]}, "type": "Feature", "properties": {"state": null, "code": "KTCE", "name": "KATOGHAN", "zone": null, "address": null}}, {"geometry": {"type": "Point", "coordinates": [81.2620300824, 25.678728805000002]}, "type": "Feature", "properties": {"state": null, "code": "ASCE", "name": "ATHSARAI", "zone": null, "address": null}}, {"geometry": {"type": "Point", "coordinates": [77.706014, 12.907633]}, "type": "Feature", "properties": {"state": "Karnataka", "code": "CRLM", "name": "Carmelaram", "zone": "SWR", "address": "Bengaluru, Karnataka"}}, {"geometry": {"type": "Point", "coordinates": [74.047794, 15.264834]}, "type": "Feature", "properties": {"state": "Goa", "code": "CNR", "name": "CHANDAR", "zone": "SWR", "address": "CHANRA (chandor), Goa"}}, {"geometry": {"type": "Point", "coordinates": [83.07686199999999, 18.262764]}, "type": "Feature", "properties": {"state": "Andhra Pradesh", "code": "CMDP", "name": "Chimidipalli", "zone": "ECoR", "address": "Borra, Andhra Pradesh"}}, {"geometry": {"type": "Point", "coordinates": [82.5020212, 25.160771699999998]}, "type": "Feature", "properties": {"state": null, "code": "BDL", "name": "VINDHYACHAL", "zone": null, "address": null}}, {"geometry": {"type": "Point", "coordinates": [79.58628900000001, 28.136577]}, "type": "Feature", "properties": {"state": null, "code": "TSA", "name": "TISUA", "zone": null, "address": null}}, {"geometry": {"type": "Point", "coordinates": [73.221682, 22.797769]}, "type": "Feature", "properties": {"state": "Gujarat", "code": "TAS", "name": "Thasra", "zone": "WR", "address": "National Highway 59, Gujarat"}}, {"geometry": {"type": "Point", "coordinates": [81.5033135022, 27.1026834977]}, "type": "Feature", "properties": {"state": null, "code": "GHT", "name": "GHAGHARA GHAT", "zone": null, "address": null}}, {"geometry": {"type": "Point", "coordinates": [82.500127, 26.938525000000002]}, "type": "Feature", "properties": {"state": null, "code": "BV", "name": "BABHNAN", "zone": null, "address": null}}, {"geometry": {"type": "Point", "coordinates": [81.69873199999999, 27.487001000000003]}, "type": "Feature", "properties": {"state": "Uttar Pradesh", "code": "CLW", "name": "Chilwariya", "zone": "NER", "address": "Bahraich, Uttar Pradesh"}}, {"geometry": null, "type": "Feature", "properties": {"state": null, "code": "OKAC", "name": "OKAC", "zone": null, "address": null}}, {"geometry": {"type": "Point", "coordinates": [82.56115799999999, 26.913411]}, "type": "Feature", "properties": {"state": null, "code": "GAUR", "name": "GAUR", "zone": null, "address": null}}, {"geometry": {"type": "Point", "coordinates": [82.639707, 26.882281000000003]}, "type": "Feature", "properties": {"state": null, "code": "TH", "name": "TINICH", "zone": null, "address": null}}, {"geometry": {"type": "Point", "coordinates": [84.03310139999999, 26.3104766]}, "type": "Feature", "properties": {"state": null, "code": "BHTR", "name": "BHATPAR RANI", "zone": null, "address": null}}, {"geometry": {"type": "Point", "coordinates": [85.354709, 26.034431]}, "type": "Feature", "properties": {"state": null, "code": "TUR", "name": "TURKI", "zone": null, "address": null}}, {"geometry": {"type": "Point", "coordinates": [85.38359600000001, 26.097367]}, "type": "Feature", "properties": {"state": null, "code": "RD", "name": "RAM DAYALU NAGAR", "zone": null, "address": null}}, {"geometry": {"type": "Point", "coordinates": [79.306506, 28.469954]}, "type": "Feature", "properties": {"state": null, "code": "BTO", "name": "BHITAURA", "zone": null, "address": null}}, {"geometry": {"type": "Point", "coordinates": [79.34185199999999, 28.433371]}, "type": "Feature", "properties": {"state": null, "code": "PKRA", "name": "PARSA KHERA", "zone": null, "address": null}}, {"geometry": {"type": "Point", "coordinates": [79.42916573, 28.3087958495]}, "type": "Feature", "properties": {"state": null, "code": "CHTI", "name": "CHANETI", "zone": null, "address": null}}, {"geometry": {"type": "Point", "coordinates": [79.62578099999999, 28.083668]}, "type": "Feature", "properties": {"state": null, "code": "BLPU", "name": "BILPUR", "zone": null, "address": null}}, {"geometry": {"type": "Point", "coordinates": [79.674809, 28.03708]}, "type": "Feature", "properties": {"state": null, "code": "MK", "name": "MIRANPUR KATRA", "zone": null, "address": null}}, {"geometry": {"type": "Point", "coordinates": [79.71796182739999, 27.988261374]}, "type": "Feature", "properties": {"state": null, "code": "MILA", "name": "MILAKPUR HALT", "zone": null, "address": null}}, {"geometry": {"type": "Point", "coordinates": [79.741776, 27.972984]}, "type": "Feature", "properties": {"state": null, "code": "TLH", "name": "TILHAR", "zone": null, "address": null}}, {"geometry": {"type": "Point", "coordinates": [75.353696, 11.911049]}, "type": "Feature", "properties": {"state": "Kerala", "code": "CQL", "name": "CHIRAKKAL", "zone": "SR", "address": "Kannur district, Kerala"}}, {"geometry": {"type": "Point", "coordinates": [76.20943, 10.535053999999999]}, "type": "Feature", "properties": {"state": null, "code": "PNQ", "name": "PUNKUNNAM", "zone": null, "address": null}}, {"geometry": {"type": "Point", "coordinates": [76.207919, 10.514790000000001]}, "type": "Feature", "properties": {"state": null, "code": "TCR", "name": "THRISUR", "zone": null, "address": null}}, {"geometry": {"type": "Point", "coordinates": [76.932807, 11.934891]}, "type": "Feature", "properties": {"state": "Karnataka", "code": "CMNR", "name": "CHAMARAJANAGAR", "zone": "SWR", "address": "Chamarajnagar, Karnataka"}}, {"geometry": {"type": "Point", "coordinates": [76.637861, 12.29844]}, "type": "Feature", "properties": {"state": "Karnataka", "code": "CMJ", "name": "CHAMARAJAPURAM", "zone": "SWR", "address": "Mysore, Karnataka"}}, {"geometry": {"type": "Point", "coordinates": [77.649646, 22.917359]}, "type": "Feature", "properties": {"state": null, "code": "BKA", "name": "BARKHERA", "zone": null, "address": null}}, {"geometry": {"type": "Point", "coordinates": [77.587299, 22.994912]}, "type": "Feature", "properties": {"state": null, "code": "ODG", "name": "OBAIDULLA GANJ", "zone": null, "address": null}}, {"geometry": {"type": "Point", "coordinates": [72.944978, 20.845167]}, "type": "Feature", "properties": {"state": "Gujarat", "code": "ACL", "name": "ANCHELI", "zone": "WR", "address": "Navsari, Gujarat"}}, {"geometry": {"type": "Point", "coordinates": [70.290734, 21.055196000000002]}, "type": "Feature", "properties": {"state": "Gujarat", "code": "CVR", "name": "CHORVAD ROAD", "zone": "WR", "address": "Gadu, Gujarat"}}, {"geometry": {"type": "Point", "coordinates": [75.402851, 19.859565]}, "type": "Feature", "properties": {"state": "Maharashtra", "code": "CTH", "name": "CHIKALTHANA", "zone": "SCR", "address": "Aurangabad, Maharashtra"}}, {"geometry": {"type": "Point", "coordinates": [82.12739309999999, 26.6360965]}, "type": "Feature", "properties": {"state": "Uttar Pradesh", "code": "BTKD", "name": "BHARATKUND", "zone": "NR", "address": "Bikapur, Uttar Pradesh"}}, {"geometry": {"type": "Point", "coordinates": [75.32156499999999, 31.949113]}, "type": "Feature", "properties": {"state": "Punjab", "code": "DHW", "name": "Dhariwal", "zone": "NR", "address": "Dhariwal, Punjab"}}, {"geometry": {"type": "Point", "coordinates": [85.27660900000001, 25.779962]}, "type": "Feature", "properties": {"state": null, "code": "SAI", "name": "SARAI", "zone": null, "address": null}}, {"geometry": {"type": "Point", "coordinates": [84.915988, 22.068676999999997]}, "type": "Feature", "properties": {"state": "Orissa", "code": "CPE", "name": "Chandiposi", "zone": "SER", "address": "National Highway 23, Orissa"}}, {"geometry": {"type": "Point", "coordinates": [77.1169303369, 19.1803282622]}, "type": "Feature", "properties": {"state": "Maharashtra", "code": "CRU", "name": "CHUDAWA", "zone": "SCR", "address": "Hingoli, Maharashtra"}}, {"geometry": {"type": "Point", "coordinates": [89.977952, 26.023137000000002]}, "type": "Feature", "properties": {"state": "Assam", "code": "DBB", "name": "DHUBRI", "zone": "NFR", "address": "Dhubri, Assam"}}, {"geometry": {"type": "Point", "coordinates": [76.96379300000001, 29.388948]}, "type": "Feature", "properties": {"state": null, "code": "PNP", "name": "PANIPAT JN", "zone": null, "address": null}}, {"geometry": {"type": "Point", "coordinates": [78.27585499999999, 29.13201]}, "type": "Feature", "properties": {"state": "Uttar Pradesh", "code": "CPS", "name": "CHANDPUR SIAU HALT", "zone": "NR", "address": "Chandpur, Uttar Pradesh"}}, {"geometry": {"type": "Point", "coordinates": [70.53884199999999, 22.427916]}, "type": "Feature", "properties": {"state": "Gujarat", "code": "CX", "name": "CHANOL", "zone": "WR", "address": "State Highway 25, Gujarat"}}, {"geometry": {"type": "Point", "coordinates": [85.365246145, 25.6767202377]}, "type": "Feature", "properties": {"state": "Bihar", "code": "CSR", "name": "CHAK SIKANDAR", "zone": "ECR", "address": "Chak Sikander, Bihar"}}, {"geometry": {"type": "Point", "coordinates": [84.487603186, 25.3615157718]}, "type": "Feature", "properties": {"state": "Bihar", "code": "CRQ", "name": "Charpokhari Halt", "zone": "ECR", "address": "Charpokhari, Bihar"}}, {"geometry": {"type": "Point", "coordinates": [75.9006577881, 21.0097131944]}, "type": "Feature", "properties": {"state": null, "code": "VNA", "name": "VARANGAON", "zone": null, "address": null}}, {"geometry": {"type": "Point", "coordinates": [85.353298, 26.7174]}, "type": "Feature", "properties": {"state": "Bihar", "code": "DAG", "name": "DHANG", "zone": "ECR", "address": "Bhang, Bihar"}}, {"geometry": {"type": "Point", "coordinates": [75.6466632, 29.0094584]}, "type": "Feature", "properties": {"state": "Haryana", "code": "CRW", "name": "Charaud", "zone": "NWR", "address": "National Highway 65, Haryana"}}, {"geometry": {"type": "Point", "coordinates": [80.626207, 21.218301]}, "type": "Feature", "properties": {"state": null, "code": "BTL", "name": "BORTALAO", "zone": null, "address": null}}, {"geometry": {"type": "Point", "coordinates": [83.102414, 21.99178]}, "type": "Feature", "properties": {"state": null, "code": "KHS", "name": "KHARSIA", "zone": null, "address": null}}, {"geometry": {"type": "Point", "coordinates": [83.182508, 21.988744]}, "type": "Feature", "properties": {"state": null, "code": "ROB", "name": "ROBERTSON", "zone": null, "address": null}}, {"geometry": {"type": "Point", "coordinates": [92.511718, 26.202272]}, "type": "Feature", "properties": {"state": "Assam", "code": "CPK", "name": "CHAPARMUKH JN", "zone": "NFR", "address": "Chaparmukh, Assam"}}, {"geometry": {"type": "Point", "coordinates": [76.014229, 30.365958000000003]}, "type": "Feature", "properties": {"state": "Punjab", "code": "CTW", "name": "Chhintanwala", "zone": "NR", "address": "Sherpur Sodhian Link Rd, Punjab"}}, {"geometry": {"type": "Point", "coordinates": [76.386431, 14.231154]}, "type": "Feature", "properties": {"state": "Karnataka", "code": "CTA", "name": "Chitradurg", "zone": "SWR", "address": "Chitradurga, Karnataka"}}, {"geometry": null, "type": "Feature", "properties": {"state": "Gujarat", "code": "AAV", "name": "Ambav", "zone": "WR", "address": "Ambav, Gujarat"}}, {"geometry": {"type": "Point", "coordinates": [80.58380799999999, 16.124988000000002]}, "type": "Feature", "properties": {"state": null, "code": "MDKU", "name": "MODUKURU", "zone": null, "address": null}}, {"geometry": {"type": "Point", "coordinates": [80.58648699999999, 16.157497]}, "type": "Feature", "properties": {"state": null, "code": "TSR", "name": "TSUNDURU", "zone": null, "address": null}}, {"geometry": {"type": "Point", "coordinates": [81.606702, 16.831606]}, "type": "Feature", "properties": {"state": null, "code": "NBM", "name": "NAVABPALEM", "zone": null, "address": null}}, {"geometry": {"type": "Point", "coordinates": [87.038724, 21.666901]}, "type": "Feature", "properties": {"state": null, "code": "NMBR", "name": "N MAYURBHANJ ROAD", "zone": null, "address": null}}, {"geometry": {"type": "Point", "coordinates": [87.0637831, 21.7029241]}, "type": "Feature", "properties": {"state": null, "code": "BTS", "name": "BASTA", "zone": null, "address": null}}, {"geometry": {"type": "Point", "coordinates": [74.014286, 22.314788]}, "type": "Feature", "properties": {"state": "Gujarat", "code": "CTD", "name": "Chhota Udepur", "zone": "WR", "address": "Vadodara, Gujarat"}}, {"geometry": {"type": "Point", "coordinates": [95.61698200000001, 27.383483]}, "type": "Feature", "properties": {"state": "Assam", "code": "DBY", "name": "Digboi", "zone": "NFR", "address": "Tinsukia, Assam"}}, {"geometry": {"type": "Point", "coordinates": [77.1556666229, 19.430619765]}, "type": "Feature", "properties": {"state": "Maharashtra", "code": "CWI", "name": "CHONDI", "zone": "SCR", "address": "Parbhani, Maharashtra"}}, {"geometry": {"type": "Point", "coordinates": [77.6629705685, 13.010940720799999]}, "type": "Feature", "properties": {"state": "Karnataka", "code": "CSDR", "name": "CHANNASANDRA", "zone": "SWR", "address": "Bengaluru, Karnataka"}}, {"geometry": {"type": "Point", "coordinates": [76.641926, 10.802091]}, "type": "Feature", "properties": {"state": null, "code": "PGT", "name": "PALAKKAD", "zone": null, "address": null}}, {"geometry": {"type": "Point", "coordinates": [75.33241, 27.112061]}, "type": "Feature", "properties": {"state": "Rajasthan", "code": "MNHA", "name": "Mindha", "zone": "NWR", "address": "Minda to Mandha Bhimsingh Rd, Rajasthan"}}, {"geometry": {"type": "Point", "coordinates": [72.748038, 23.168331000000002]}, "type": "Feature", "properties": {"state": "Gujarat", "code": "DBO", "name": "DABHODA", "zone": "WR", "address": "Dabhoda, Gujarat"}}, {"geometry": {"type": "Point", "coordinates": [74.54288000000001, 29.859997]}, "type": "Feature", "properties": {"state": "Rajasthan", "code": "DABN", "name": "DHABAN", "zone": "NWR", "address": "Sangaria, Rajasthan"}}, {"geometry": {"type": "Point", "coordinates": [74.19093000000001, 29.542416]}, "type": "Feature", "properties": {"state": "Rajasthan", "code": "DBI", "name": "DABLI RATHAN", "zone": "NWR", "address": "Hanumangarh, Rajasthan"}}, {"geometry": {"type": "Point", "coordinates": [72.367959, 23.918067]}, "type": "Feature", "properties": {"state": "Gujarat", "code": "SID", "name": "SIDDHPUR", "zone": "WR", "address": "State Highway 41, Gujarat"}}, {"geometry": {"type": "Point", "coordinates": [85.466475, 23.643461000000002]}, "type": "Feature", "properties": {"state": "", "code": "ARGD", "name": "ARIGADA", "zone": "ECR", "address": ""}}, {"geometry": {"type": "Point", "coordinates": [81.287323, 23.994088]}, "type": "Feature", "properties": {"state": "Madhya Pradesh", "code": "CTJ", "name": "CHHATAINI", "zone": "WCR", "address": "Awasthi Sadan Rd, Madhya Pradesh"}}, {"geometry": {"type": "Point", "coordinates": [80.48673398129999, 23.7758696073]}, "type": "Feature", "properties": {"state": "Madhya Pradesh", "code": "KTKD", "name": "KATANGI KHURD", "zone": "WCR", "address": "State Highway 10, Madhya Pradesh"}}, {"geometry": {"type": "Point", "coordinates": [75.94413499999999, 22.450677]}, "type": "Feature", "properties": {"state": "Madhya Pradesh", "code": "CRL", "name": "Choral", "zone": "WR", "address": "SH 27, Madhya Pradesh"}}, {"geometry": {"type": "Point", "coordinates": [91.860783, 23.930507]}, "type": "Feature", "properties": {"state": "Tripura", "code": "ABSA", "name": "Ambassa", "zone": "NFR", "address": "Ambassa, Tripura"}}, {"geometry": {"type": "Point", "coordinates": [73.19955399999999, 23.289155]}, "type": "Feature", "properties": {"state": null, "code": "NVP", "name": "Navalpura", "zone": null, "address": null}}, {"geometry": {"type": "Point", "coordinates": [76.720809, 21.361353]}, "type": "Feature", "properties": {"state": "Madhya Pradesh", "code": "DBKA", "name": "Dabka", "zone": "SCR", "address": "Amlakhurd, Madhya Pradesh"}}, {"geometry": {"type": "Point", "coordinates": [88.80796000000001, 22.656633999999997]}, "type": "Feature", "properties": {"state": "West Bengal", "code": "CQR", "name": "Champapukur", "zone": "ER", "address": "Kholapota, West Bengal"}}, {"geometry": {"type": "Point", "coordinates": [77.166876, 28.714564]}, "type": "Feature", "properties": {"state": null, "code": "NDAZ", "name": "NAYA AZADPUR", "zone": null, "address": null}}, {"geometry": {"type": "Point", "coordinates": [77.16670699999999, 28.714205]}, "type": "Feature", "properties": {"state": null, "code": "ANDI", "name": "ADARSH NAGAR DELHI", "zone": null, "address": null}}, {"geometry": {"type": "Point", "coordinates": [74.966203, 28.288281]}, "type": "Feature", "properties": {"state": "Rajasthan", "code": "CUR", "name": "Churu", "zone": "NWR", "address": "Churu, Rajasthan"}}, {"geometry": {"type": "Point", "coordinates": [77.1377425, 28.746799999999997]}, "type": "Feature", "properties": {"state": null, "code": "BHD", "name": "BADLI", "zone": null, "address": null}}, {"geometry": {"type": "Point", "coordinates": [77.115838, 28.769717999999997]}, "type": "Feature", "properties": {"state": null, "code": "KHKN", "name": "KHERA KALAN", "zone": null, "address": null}}, {"geometry": {"type": "Point", "coordinates": [77.102334, 28.801187]}, "type": "Feature", "properties": {"state": null, "code": "HUK", "name": "HOLAMBI KALAN", "zone": null, "address": null}}, {"geometry": {"type": "Point", "coordinates": [77.085727, 28.846886]}, "type": "Feature", "properties": {"state": null, "code": "NUR", "name": "NARELA", "zone": null, "address": null}}, {"geometry": {"type": "Point", "coordinates": [78.953212, 22.058201]}, "type": "Feature", "properties": {"state": "Madhya Pradesh", "code": "CWA", "name": "Chhindwara Junction", "zone": "SECR", "address": "Chhindwara, Madhya Pradesh"}}, {"geometry": {"type": "Point", "coordinates": [77.05914800000001, 28.904132]}, "type": "Feature", "properties": {"state": null, "code": "RDDE", "name": "RATHDHANA", "zone": null, "address": null}}, {"geometry": {"type": "Point", "coordinates": [76.64532, 8.932478000000001]}, "type": "Feature", "properties": {"state": "Kerala", "code": "CTPE", "name": "Chandanattop Halt", "zone": "SR", "address": "Kilikkollur, Kerala"}}, {"geometry": {"type": "Point", "coordinates": [77.039135, 28.945425]}, "type": "Feature", "properties": {"state": null, "code": "HNN", "name": "HARANA KALAN", "zone": null, "address": null}}, {"geometry": {"type": "Point", "coordinates": [77.017343, 28.989423000000002]}, "type": "Feature", "properties": {"state": null, "code": "SNP", "name": "SONIPAT", "zone": null, "address": null}}, {"geometry": {"type": "Point", "coordinates": [77.012589, 29.063432000000002]}, "type": "Feature", "properties": {"state": null, "code": "SLKN", "name": "SANDAL KALAN", "zone": null, "address": null}}, {"geometry": {"type": "Point", "coordinates": [77.012109, 29.090744]}, "type": "Feature", "properties": {"state": null, "code": "RUG", "name": "RAJLU GARHI", "zone": null, "address": null}}, {"geometry": {"type": "Point", "coordinates": [77.01074999999999, 29.130776]}, "type": "Feature", "properties": {"state": null, "code": "GNU", "name": "GANAUR", "zone": null, "address": null}}, {"geometry": {"type": "Point", "coordinates": [77.0082364, 29.1852092]}, "type": "Feature", "properties": {"state": null, "code": "BDMJ", "name": "BHODWAL MAJRI", "zone": null, "address": null}}, {"geometry": {"type": "Point", "coordinates": [77.003034, 29.240172]}, "type": "Feature", "properties": {"state": null, "code": "SMK", "name": "SAMALKHA", "zone": null, "address": null}}, {"geometry": {"type": "Point", "coordinates": [76.980194, 29.318564]}, "type": "Feature", "properties": {"state": null, "code": "DWNA", "name": "DIWANA", "zone": null, "address": null}}, {"geometry": {"type": "Point", "coordinates": [76.966178, 29.449652]}, "type": "Feature", "properties": {"state": null, "code": "BBDE", "name": "BABARPUR", "zone": null, "address": null}}, {"geometry": {"type": "Point", "coordinates": [76.968758, 29.494782]}, "type": "Feature", "properties": {"state": null, "code": "KFU", "name": "KOHAND", "zone": null, "address": null}}, {"geometry": {"type": "Point", "coordinates": [76.96575000000001, 29.541636]}, "type": "Feature", "properties": {"state": null, "code": "GRA", "name": "GHARAUNDA", "zone": null, "address": null}}, {"geometry": {"type": "Point", "coordinates": [76.965812, 29.613391]}, "type": "Feature", "properties": {"state": null, "code": "BZJT", "name": "BAZIDA JATAN", "zone": null, "address": null}}, {"geometry": {"type": "Point", "coordinates": [76.969821, 29.694566000000002]}, "type": "Feature", "properties": {"state": null, "code": "KUN", "name": "KARNAL", "zone": null, "address": null}}, {"geometry": {"type": "Point", "coordinates": [76.95536200000001, 29.751544]}, "type": "Feature", "properties": {"state": null, "code": "BZK", "name": "BHAINI KHURD", "zone": null, "address": null}}, {"geometry": {"type": "Point", "coordinates": [76.93858, 29.797906]}, "type": "Feature", "properties": {"state": null, "code": "TRR", "name": "TARAORI", "zone": null, "address": null}}, {"geometry": {"type": "Point", "coordinates": [76.925491, 29.831492]}, "type": "Feature", "properties": {"state": null, "code": "NLKR", "name": "NILOKHERI", "zone": null, "address": null}}, {"geometry": {"type": "Point", "coordinates": [76.852795, 29.969440000000002]}, "type": "Feature", "properties": {"state": null, "code": "KKDE", "name": "KURUKSHETRA JN", "zone": null, "address": null}}, {"geometry": {"type": "Point", "coordinates": [77.124352, 8.378802]}, "type": "Feature", "properties": {"state": "Kerala", "code": "DAVM", "name": "DHANUVACHAPURAM", "zone": "SR", "address": "Dhanuvachapuram, Kerala"}}, {"geometry": {"type": "Point", "coordinates": [82.590027, 18.922722]}, "type": "Feature", "properties": {"state": "Orissa", "code": "CTS", "name": "CHATTRIPUT", "zone": "ECoR", "address": "Jeypore, Orissa"}}, {"geometry": {"type": "Point", "coordinates": [75.56132, 31.346977000000003]}, "type": "Feature", "properties": {"state": "Punjab", "code": "DAVJ", "name": "D.A.V.C.H. JALANDHAR", "zone": "NR", "address": "Jalandhar, Punjab"}}, {"geometry": {"type": "Point", "coordinates": [77.14358825779999, 28.628342466499998]}, "type": "Feature", "properties": {"state": "Delhi NCT", "code": "DLPI", "name": "INDRAPURI", "zone": "NR", "address": "Delhi Cantonment, Delhi NCT"}}, {"geometry": {"type": "Point", "coordinates": [79.92761300000001, 23.110295]}, "type": "Feature", "properties": {"state": "Madhya Pradesh", "code": "GRG", "name": "Guwarighat", "zone": "SECR", "address": "Gwarighat, Madhya Pradesh"}}, {"geometry": {"type": "Point", "coordinates": [77.186969, 28.582121]}, "type": "Feature", "properties": {"state": "Delhi NCT", "code": "DSJ", "name": "DELHI SAFDARJUNG", "zone": "NR", "address": "Netaji Nagar, Delhi NCT"}}, {"geometry": {"type": "Point", "coordinates": [76.803295, 29.253606]}, "type": "Feature", "properties": {"state": "Haryana", "code": "DHRN", "name": "DHURANA", "zone": "NR", "address": "Panipat, Haryana"}}, {"geometry": {"type": "Point", "coordinates": [72.902042, 25.934458]}, "type": "Feature", "properties": {"state": "Rajasthan", "code": "DUK", "name": "DUDIA", "zone": "NWR", "address": "Dundara, Rajasthan"}}, {"geometry": {"type": "Point", "coordinates": [76.70013, 15.227107]}, "type": "Feature", "properties": {"state": "Karnataka", "code": "DAJ", "name": "DUROJI", "zone": "SWR", "address": "Bellary, Karnataka"}}, {"geometry": {"type": "Point", "coordinates": [86.01624276369999, 25.4012639369]}, "type": "Feature", "properties": {"state": null, "code": "BTPH", "name": "CHAKIA THERMAL HALT", "zone": null, "address": null}}, {"geometry": {"type": "Point", "coordinates": [82.875333703, 22.0159803866]}, "type": "Feature", "properties": {"state": null, "code": "JDDA", "name": "JATHA", "zone": null, "address": null}}, {"geometry": {"type": "Point", "coordinates": [83.050747, 21.999876]}, "type": "Feature", "properties": {"state": null, "code": "JDI", "name": "JHARRADIH", "zone": null, "address": null}}, {"geometry": {"type": "Point", "coordinates": [78.761747, 10.037610999999998]}, "type": "Feature", "properties": {"state": "Tamil Nadu", "code": "DKO", "name": "Devakottai Road", "zone": "SR", "address": "NH 210, Tamil Nadu"}}, {"geometry": {"type": "Point", "coordinates": [78.303084, 28.19378]}, "type": "Feature", "properties": {"state": "Uttar Pradesh", "code": "DIB", "name": "DIBAI", "zone": "NR", "address": "Dibai, Uttar Pradesh"}}, {"geometry": {"type": "Point", "coordinates": [80.3239098425, 26.4531901925]}, "type": "Feature", "properties": {"state": null, "code": "CNJO", "name": "JUHI OUTER CABIN", "zone": null, "address": null}}, {"geometry": {"type": "Point", "coordinates": [74.58561499999999, 25.578333999999998]}, "type": "Feature", "properties": {"state": "Rajasthan", "code": "LMA", "name": "LAMBIYA", "zone": "NWR", "address": "National Highway 79, Rajasthan"}}, {"geometry": null, "type": "Feature", "properties": {"state": null, "code": "DBLG", "name": "DBLG", "zone": null, "address": null}}, {"geometry": {"type": "Point", "coordinates": [73.855552, 25.610206]}, "type": "Feature", "properties": {"state": "Rajasthan", "code": "DOHM", "name": "Devgarh Madriya", "zone": "NWR", "address": "Devgarh, Rajasthan"}}, {"geometry": null, "type": "Feature", "properties": {"state": null, "code": "NHLG", "name": "NHLG", "zone": null, "address": null}}, {"geometry": {"type": "Point", "coordinates": [78.53134999999999, 17.456247]}, "type": "Feature", "properties": {"state": "Andhra Pradesh", "code": "DYE", "name": "DAYANAND NAGAR", "zone": "SCR", "address": "Secunderabad, Andhra Pradesh"}}, {"geometry": {"type": "Point", "coordinates": [78.470315, 17.674226]}, "type": "Feature", "properties": {"state": "Andhra Pradesh", "code": "DBV", "name": "DABILPUR", "zone": "SCR", "address": "Rangareddy, Andhra Pradesh"}}, {"geometry": null, "type": "Feature", "properties": {"state": null, "code": "JGLP", "name": "JGLP", "zone": null, "address": null}}, {"geometry": {"type": "Point", "coordinates": [76.930886, 28.700863000000002]}, "type": "Feature", "properties": {"state": "Haryana", "code": "BGZ", "name": "BAHADURGARH", "zone": "NR", "address": "Bahadurgarh, Haryana"}}, {"geometry": null, "type": "Feature", "properties": {"state": null, "code": "PNSR", "name": "PNSR", "zone": null, "address": null}}, {"geometry": {"type": "Point", "coordinates": [71.509053, 21.688346]}, "type": "Feature", "properties": {"state": "Gujarat", "code": "DME", "name": "DAMNAGAR", "zone": "WR", "address": "Damnagar, Gujarat"}}, {"geometry": {"type": "Point", "coordinates": [88.613551, 23.242037]}, "type": "Feature", "properties": {"state": "West Bengal", "code": "AG", "name": "Aranghata", "zone": "ER", "address": "Haranath Para Ln, West Bengal"}}, {"geometry": {"type": "Point", "coordinates": [81.64411, 16.709921]}, "type": "Feature", "properties": {"state": "Andhra Pradesh", "code": "RLG", "name": "RELANGI", "zone": "SCR", "address": "Relangi, Andhra Pradesh"}}, {"geometry": {"type": "Point", "coordinates": [81.44306300000001, 21.209789]}, "type": "Feature", "properties": {"state": null, "code": "CCAB", "name": "BMY C CABIN", "zone": null, "address": null}}, {"geometry": {"type": "Point", "coordinates": [76.736112, 19.106268]}, "type": "Feature", "properties": {"state": "Maharashtra", "code": "DNDI", "name": "DHONDI", "zone": "SCR", "address": "State Highway 148, Maharashtra"}}, {"geometry": {"type": "Point", "coordinates": [80.557243, 16.067904]}, "type": "Feature", "properties": {"state": null, "code": "NDO", "name": "NIDUBROLU", "zone": null, "address": null}}, {"geometry": {"type": "Point", "coordinates": [74.02541699999999, 30.408641]}, "type": "Feature", "properties": {"state": "Punjab", "code": "FKA", "name": "Fazilka", "zone": "NR", "address": "Fazilka, Punjab"}}, {"geometry": {"type": "Point", "coordinates": [81.526314, 16.809960999999998]}, "type": "Feature", "properties": {"state": null, "code": "TDD", "name": "TADEPALLIGUDEM", "zone": null, "address": null}}, {"geometry": {"type": "Point", "coordinates": [81.581431, 16.820864999999998]}, "type": "Feature", "properties": {"state": null, "code": "PTPU", "name": "PRATTIAPADU", "zone": null, "address": null}}, {"geometry": {"type": "Point", "coordinates": [78.822411, 21.621177]}, "type": "Feature", "properties": {"state": "Madhya Pradesh", "code": "BDHT", "name": "Bardi Halt", "zone": "SECR", "address": "State Highway 19, Madhya Pradesh"}}, {"geometry": {"type": "Point", "coordinates": [77.652122, 13.183156]}, "type": "Feature", "properties": {"state": "Karnataka", "code": "DJL", "name": "Dodajala Lake", "zone": "SWR", "address": "Hosur Road., Karnataka"}}, {"geometry": {"type": "Point", "coordinates": [92.45086500000001, 26.453101]}, "type": "Feature", "properties": {"state": "Assam", "code": "DIU", "name": "Dhing", "zone": "NFR", "address": "National Highway 37, Assam"}}, {"geometry": {"type": "Point", "coordinates": [72.096828, 24.631708]}, "type": "Feature", "properties": {"state": "Gujarat", "code": "DGQ", "name": "Dugdol", "zone": "NWR", "address": "Dhanera, Gujarat"}}, {"geometry": {"type": "Point", "coordinates": [75.047442, 30.834858]}, "type": "Feature", "properties": {"state": "Punjab", "code": "DAU", "name": "Dagru", "zone": "NR", "address": "Dagru, Punjab"}}, {"geometry": {"type": "Point", "coordinates": [85.24335073670001, 25.737421135399998]}, "type": "Feature", "properties": {"state": null, "code": "GWH", "name": "GHOSHAWAR", "zone": null, "address": null}}, {"geometry": {"type": "Point", "coordinates": [85.2155, 25.702909000000002]}, "type": "Feature", "properties": {"state": null, "code": "HJP", "name": "HAJIPUR JN", "zone": null, "address": null}}, {"geometry": null, "type": "Feature", "properties": {"state": null, "code": "ENBG", "name": "ENBG", "zone": null, "address": null}}, {"geometry": {"type": "Point", "coordinates": [76.26070700000001, 10.420507]}, "type": "Feature", "properties": {"state": null, "code": "PUK", "name": "PUDUKAD", "zone": null, "address": null}}, {"geometry": {"type": "Point", "coordinates": [76.275994, 10.392415000000002]}, "type": "Feature", "properties": {"state": null, "code": "NYI", "name": "NELLAYI", "zone": null, "address": null}}, {"geometry": {"type": "Point", "coordinates": [77.448615, 11.156494]}, "type": "Feature", "properties": {"state": null, "code": "UKL", "name": "UTTUKULI", "zone": null, "address": null}}, {"geometry": {"type": "Point", "coordinates": [77.341247, 11.108906]}, "type": "Feature", "properties": {"state": null, "code": "TUP", "name": "TIRUPPUR", "zone": null, "address": null}}, {"geometry": {"type": "Point", "coordinates": [77.18638, 11.087247]}, "type": "Feature", "properties": {"state": null, "code": "SNO", "name": "SOMANUR", "zone": null, "address": null}}, {"geometry": {"type": "Point", "coordinates": [77.11729, 11.049634]}, "type": "Feature", "properties": {"state": null, "code": "SUU", "name": "SULUR ROAD", "zone": null, "address": null}}, {"geometry": {"type": "Point", "coordinates": [77.06913399999999, 11.017199]}, "type": "Feature", "properties": {"state": null, "code": "IGU", "name": "IRUGUR", "zone": null, "address": null}}, {"geometry": {"type": "Point", "coordinates": [77.03945900000001, 11.012921]}, "type": "Feature", "properties": {"state": null, "code": "SHI", "name": "SINGANALLUR", "zone": null, "address": null}}, {"geometry": {"type": "Point", "coordinates": [76.999566, 11.033241]}, "type": "Feature", "properties": {"state": null, "code": "PLMD", "name": "PILAMEDU", "zone": null, "address": null}}, {"geometry": {"type": "Point", "coordinates": [76.966298, 10.997639]}, "type": "Feature", "properties": {"state": null, "code": "CBE", "name": "COIMBATORE JN", "zone": null, "address": null}}, {"geometry": {"type": "Point", "coordinates": [76.990125, 10.965425]}, "type": "Feature", "properties": {"state": null, "code": "PTJ", "name": "PODANUR JN", "zone": null, "address": null}}, {"geometry": {"type": "Point", "coordinates": [76.94295000000001, 10.900858]}, "type": "Feature", "properties": {"state": null, "code": "MDKI", "name": "MADUKARAI", "zone": null, "address": null}}, {"geometry": {"type": "Point", "coordinates": [76.280924, 10.339456]}, "type": "Feature", "properties": {"state": null, "code": "IJK", "name": "IRINJALAKUDA", "zone": null, "address": null}}, {"geometry": {"type": "Point", "coordinates": [76.3218076, 10.3017975]}, "type": "Feature", "properties": {"state": null, "code": "CKI", "name": "CHALAKUDI", "zone": null, "address": null}}, {"geometry": {"type": "Point", "coordinates": [76.3363143628, 10.2853993721]}, "type": "Feature", "properties": {"state": null, "code": "DINR", "name": "DIVINE NAGAR", "zone": null, "address": null}}, {"geometry": {"type": "Point", "coordinates": [76.355901, 10.260123]}, "type": "Feature", "properties": {"state": null, "code": "KRAN", "name": "KORATTI ANGADI", "zone": null, "address": null}}, {"geometry": {"type": "Point", "coordinates": [76.373077, 10.225757]}, "type": "Feature", "properties": {"state": null, "code": "KUC", "name": "KARUKKUTTY", "zone": null, "address": null}}, {"geometry": {"type": "Point", "coordinates": [76.37786, 10.183676]}, "type": "Feature", "properties": {"state": null, "code": "AFK", "name": "ANGAMALI", "zone": null, "address": null}}, {"geometry": {"type": "Point", "coordinates": [76.37218899999999, 10.133064]}, "type": "Feature", "properties": {"state": null, "code": "CWR", "name": "CHOVVARA", "zone": null, "address": null}}, {"geometry": {"type": "Point", "coordinates": [88.263326, 27.038151]}, "type": "Feature", "properties": {"state": "West Bengal", "code": "DJ", "name": "Darjeeling", "zone": "NFR", "address": "Darjeeling, West Bengal"}}, {"geometry": {"type": "Point", "coordinates": [76.356508, 10.108163]}, "type": "Feature", "properties": {"state": null, "code": "AWY", "name": "ALUVA", "zone": null, "address": null}}, {"geometry": {"type": "Point", "coordinates": [76.32695600000001, 10.061818]}, "type": "Feature", "properties": {"state": null, "code": "KLMR", "name": "KALAMASSERY", "zone": null, "address": null}}, {"geometry": {"type": "Point", "coordinates": [76.298271, 10.034338]}, "type": "Feature", "properties": {"state": null, "code": "IPL", "name": "EDAPPALLY", "zone": null, "address": null}}, {"geometry": {"type": "Point", "coordinates": [76.2861, 9.991582000000001]}, "type": "Feature", "properties": {"state": null, "code": "ERN", "name": "ERNAKULAM TOWN", "zone": null, "address": null}}, {"geometry": {"type": "Point", "coordinates": [76.89715500000001, 10.898788]}, "type": "Feature", "properties": {"state": null, "code": "ETMD", "name": "ETTIMADAI", "zone": null, "address": null}}, {"geometry": {"type": "Point", "coordinates": [76.8376135147, 10.8471810329]}, "type": "Feature", "properties": {"state": null, "code": "WRA", "name": "WALAYAR", "zone": null, "address": null}}, {"geometry": {"type": "Point", "coordinates": [76.276917865, 30.3379133215]}, "type": "Feature", "properties": {"state": "Punjab", "code": "DBN", "name": "Dhablan", "zone": "NR", "address": "Gurudwara Ishar Darbar Rd, Punjab"}}, {"geometry": {"type": "Point", "coordinates": [81.488923, 18.927979999999998]}, "type": "Feature", "properties": {"state": "Chhattisgarh", "code": "DBF", "name": "Dabpal", "zone": "?", "address": "Dabpal, Chhattisgarh"}}, {"geometry": {"type": "Point", "coordinates": [92.481039, 26.455873]}, "type": "Feature", "properties": {"state": "Assam", "code": "DBZ", "name": "Dhing Bazar", "zone": "NFR", "address": "Mathaouri Rd, Assam"}}, {"geometry": {"type": "Point", "coordinates": [76.801793, 10.837164999999999]}, "type": "Feature", "properties": {"state": null, "code": "CLMD", "name": "CHULLIMADA", "zone": null, "address": null}}, {"geometry": {"type": "Point", "coordinates": [76.693457, 10.815731]}, "type": "Feature", "properties": {"state": null, "code": "KTKU", "name": "KOTTEKAD", "zone": null, "address": null}}, {"geometry": {"type": "Point", "coordinates": [73.65658, 28.417832]}, "type": "Feature", "properties": {"state": "Rajasthan", "code": "DLC", "name": "DALMERA", "zone": "NWR", "address": "Bikaner, Rajasthan"}}, {"geometry": {"type": "Point", "coordinates": [76.30765699999999, 9.933729]}, "type": "Feature", "properties": {"state": null, "code": "TNU", "name": "TIRUNETTUR", "zone": null, "address": null}}, {"geometry": {"type": "Point", "coordinates": [76.3116, 9.906723]}, "type": "Feature", "properties": {"state": null, "code": "KUMM", "name": "KUMBALAM", "zone": null, "address": null}}, {"geometry": {"type": "Point", "coordinates": [76.30283299999999, 9.8791031]}, "type": "Feature", "properties": {"state": null, "code": "AROR", "name": "AROOR HALT", "zone": null, "address": null}}, {"geometry": {"type": "Point", "coordinates": [76.302391, 9.820288000000001]}, "type": "Feature", "properties": {"state": null, "code": "EZP", "name": "EZHUPPUNNA", "zone": null, "address": null}}, {"geometry": {"type": "Point", "coordinates": [76.309979, 9.772809]}, "type": "Feature", "properties": {"state": null, "code": "TUVR", "name": "TURAVUR", "zone": null, "address": null}}, {"geometry": {"type": "Point", "coordinates": [76.28985899999999, 9.978060000000001]}, "type": "Feature", "properties": {"state": null, "code": "ERSC", "name": "ERNAKULAM JN. C", "zone": null, "address": null}}, {"geometry": {"type": "Point", "coordinates": [82.50739300000001, 18.945173]}, "type": "Feature", "properties": {"state": "Orissa", "code": "DIR", "name": "DHANAPUR ORISSA", "zone": "ECoR", "address": "National Highway 43, Orissa"}}, {"geometry": {"type": "Point", "coordinates": [79.476473, 28.64478]}, "type": "Feature", "properties": {"state": "Uttar Pradesh", "code": "DRN", "name": "DEORANIAN", "zone": "NER", "address": "SH 37, Uttar Pradesh"}}, {"geometry": {"type": "Point", "coordinates": [86.134476, 25.425296]}, "type": "Feature", "properties": {"state": "Bihar", "code": "BGS", "name": "BEGU SARAI", "zone": "ECR", "address": "06243-222853, Bihar"}}, {"geometry": {"type": "Point", "coordinates": [79.96972000000001, 23.846381]}, "type": "Feature", "properties": {"state": null, "code": "BQQ", "name": "BAKHLETA", "zone": null, "address": null}}, {"geometry": {"type": "Point", "coordinates": [74.65595449829999, 25.9027951891]}, "type": "Feature", "properties": {"state": "Rajasthan", "code": "GBP", "name": "GULABPURA", "zone": "NWR", "address": "Gulabpura, Rajasthan"}}, {"geometry": {"type": "Point", "coordinates": [80.140267, 23.904168]}, "type": "Feature", "properties": {"state": null, "code": "REI", "name": "RITHI", "zone": null, "address": null}}, {"geometry": {"type": "Point", "coordinates": [78.7596338837, 28.83865785]}, "type": "Feature", "properties": {"state": null, "code": "MBWC", "name": "MORADABAD WEST", "zone": null, "address": null}}, {"geometry": {"type": "Point", "coordinates": [78.73559542849999, 28.8719872056]}, "type": "Feature", "properties": {"state": null, "code": "HRH", "name": "HARTHALA", "zone": null, "address": null}}, {"geometry": {"type": "Point", "coordinates": [78.439153, 26.480421000000003]}, "type": "Feature", "properties": {"state": "Madhya Pradesh", "code": "GOA", "name": "GOHAD ROAD", "zone": "NCR", "address": "Bhind, Madhya Pradesh"}}, {"geometry": {"type": "Point", "coordinates": [78.13275402709999, 19.465517438899997]}, "type": "Feature", "properties": {"state": "Maharashtra", "code": "DHNR", "name": "DHANORA DECCAN", "zone": "SCR", "address": "Kinwat, Maharashtra"}}, {"geometry": {"type": "Point", "coordinates": [81.828816, 25.446241]}, "type": "Feature", "properties": {"state": null, "code": "ALD", "name": "ALLAHABAD JN", "zone": null, "address": null}}, {"geometry": {"type": "Point", "coordinates": [78.65391899999999, 27.571173]}, "type": "Feature", "properties": {"state": "Uttar Pradesh", "code": "ETAH", "name": "Etah", "zone": "NCR", "address": "Etah, Uttar Pradesh"}}, {"geometry": {"type": "Point", "coordinates": [72.568831, 23.02676]}, "type": "Feature", "properties": {"state": "Gujarat", "code": "GG", "name": "GANDHIGRAM", "zone": "WR", "address": "Ahmedabad, Gujarat"}}, {"geometry": {"type": "Point", "coordinates": [75.78867170000001, 21.0472812]}, "type": "Feature", "properties": {"state": null, "code": "BSL", "name": "BHUSAVAL JN", "zone": null, "address": null}}, {"geometry": {"type": "Point", "coordinates": [73.077841, 19.211345]}, "type": "Feature", "properties": {"state": null, "code": "KOPR", "name": "KOPAR ROAD", "zone": null, "address": null}}, {"geometry": {"type": "Point", "coordinates": [88.087286, 23.71822]}, "type": "Feature", "properties": {"state": "West Bengal", "code": "GGLE", "name": "GANGATIKURI", "zone": "ER", "address": "State Highway 6, West Bengal"}}, {"geometry": {"type": "Point", "coordinates": [84.084599, 24.953195]}, "type": "Feature", "properties": {"state": null, "code": "KWD", "name": "KARWANDIA", "zone": null, "address": null}}, {"geometry": {"type": "Point", "coordinates": [70.64304, 25.743851]}, "type": "Feature", "properties": {"state": "Rajasthan", "code": "GDD", "name": "Gadra Road", "zone": "NWR", "address": "Gadara, Rajasthan"}}, {"geometry": {"type": "Point", "coordinates": [84.019423, 24.955926]}, "type": "Feature", "properties": {"state": null, "code": "SSM", "name": "SASARAM", "zone": null, "address": null}}, {"geometry": {"type": "Point", "coordinates": [88.31182199999999, 23.277796]}, "type": "Feature", "properties": {"state": "West Bengal", "code": "DTAE", "name": "DHATRIGRAM", "zone": "ER", "address": "Dhatrigram, West Bengal"}}, {"geometry": {"type": "Point", "coordinates": [78.71490899999999, 20.776649999999997]}, "type": "Feature", "properties": {"state": null, "code": "SLOR", "name": "SELOO ROAD", "zone": null, "address": null}}, {"geometry": {"type": "Point", "coordinates": [78.883342, 20.816446]}, "type": "Feature", "properties": {"state": null, "code": "SNI", "name": "SINDI", "zone": null, "address": null}}, {"geometry": {"type": "Point", "coordinates": [73.19870999999999, 23.351916]}, "type": "Feature", "properties": {"state": "Gujarat", "code": "DNUA", "name": "Dhansura", "zone": "WR", "address": "State Highway 68, Gujarat"}}, {"geometry": {"type": "Point", "coordinates": [82.743775, 22.019979]}, "type": "Feature", "properties": {"state": null, "code": "SGRD", "name": "SULGARE", "zone": null, "address": null}}, {"geometry": {"type": "Point", "coordinates": [82.813724, 22.011725000000002]}, "type": "Feature", "properties": {"state": null, "code": "BUA", "name": "BARADWAR", "zone": null, "address": null}}, {"geometry": {"type": "Point", "coordinates": [82.956526, 22.011785000000003]}, "type": "Feature", "properties": {"state": null, "code": "SKT", "name": "SAKTI", "zone": null, "address": null}},